[{"diesela": [0.0], "lon": -85.65767222, "dieselr": [0.0], "marca2": "UNO", "marca": "UNO", "direccion": "Entrada a Boaco", "gasos": [0.0], "gasor": [0.0], "kerosine": [0.0], "lat": 12.47174444, "nombre": "Uno Boaco Chatisa", "id": "BCO0101"}, {"diesela": [0.0], "lon": -85.74814167, "dieselr": [0.0], "marca2": "Independiente", "marca": "IND", "direccion": "Empalme de Boaco", "gasos": [0.0], "gasor": [0.0], "kerosine": [0.0], "lat": 12.41491667, "nombre": "Independiente Empalme de Boaco", "id": "BCO0102"}, {"diesela": [0.0], "lon": -85.66218333, "dieselr": [0.0], "marca2": "UNO", "marca": "UNO", "direccion": "Entrada a Boaco", "gasos": [0.0], "gasor": [0.0], "kerosine": [0.0], "lat": 12.46554722, "nombre": "Uno Nueva Boaco 2000", "id": "BCO0103"}, {"diesela": [0.0], "lon": -85.65824444, "dieselr": [0.0], "marca2": "DNP", "marca": "DNP", "direccion": "Centro de la Ciudad", "gasos": [0.0], "gasor": [0.0], "kerosine": [0.0], "lat": 12.46994167, "nombre": "Petronic Boaco", "id": "BCO0104"}, {"diesela": [0.0], "lon": -85.50222222, "dieselr": [0.0], "marca2": "UNO", "marca": "UNO", "direccion": "Estadio Municipal 3C al Este", "gasos": [0.0], "gasor": [0.0], "kerosine": [0.0], "lat": 12.38515278, "nombre": "Uno Camoapa", "id": "BCO0205"}, {"diesela": [0.0], "lon": -85.64294722, "dieselr": [0.0], "marca2": "DNP", "marca": "DNP", "direccion": "Km 101 Carretera a Juigalpa", "gasos": [0.0], "gasor": [0.0], "kerosine": [0.0], "lat": 12.25640833, "nombre": "Petronic Tecolostote", "id": "BCO0306"}, {"diesela": [28.26], "lon": -87.02359167, "dieselr": [27.93], "marca2": "UNO", "marca": "UNO", "direccion": "Entrada a Chichigalpa", "gasos": [34.52], "gasor": [31.61], "kerosine": [0.0], "lat": 12.59166944, "nombre": "Uno Chichigalpa", "id": "CHI0101"}, {"diesela": [0.0], "lon": -87.02640556, "dieselr": [27.93], "marca2": "UNO", "marca": "UNO", "direccion": "Bo Mercedes Mcdo Municipal 1C al Oeste", "gasos": [34.51], "gasor": [31.61], "kerosine": [0.0], "lat": 12.57566389, "nombre": "Uno San Martin", "id": "CHI0102"}, {"diesela": [0.0], "lon": -87.02634722, "dieselr": [28.46], "marca2": "DNP", "marca": "DNP", "direccion": "Frente al Colegio Francisca Gonzalez.", "gasos": [34.56], "gasor": [0.0], "kerosine": [0.0], "lat": 12.57773056, "nombre": "Petronic Chichigalpa", "id": "CHI0103"}, {"diesela": [0.0], "lon": -87.12507222, "dieselr": [27.93], "marca2": "Puma", "marca": "PUM", "direccion": "Contiguo a GEMINA", "gasos": [34.52], "gasor": [0.0], "kerosine": [0.0], "lat": 12.62509444, "nombre": "Puma Terminal", "id": "CHI0201"}, {"diesela": [0.0], "lon": -87.12819444, "dieselr": [27.93], "marca2": "Puma", "marca": "PUM", "direccion": "De la Iglesia El Calvario 1C al Sur.", "gasos": [34.52], "gasor": [31.6], "kerosine": [0.0], "lat": 12.63013333, "nombre": "Puma Central", "id": "CHI0202"}, {"diesela": [28.18], "lon": -87.13211944, "dieselr": [27.93], "marca2": "UNO", "marca": "UNO", "direccion": "Esquina de los Bancos", "gasos": [34.52], "gasor": [31.6], "kerosine": [0.0], "lat": 12.63079722, "nombre": "Uno Chinandega", "id": "CHI0203"}, {"diesela": [28.18], "lon": -87.12681389, "dieselr": [27.93], "marca2": "UNO", "marca": "UNO", "direccion": "Salida Chinandega Somotillo", "gasos": [34.52], "gasor": [0.0], "kerosine": [0.0], "lat": 12.64684444, "nombre": "Uno Norte", "id": "CHI0204"}, {"diesela": [28.19], "lon": -87.13272222, "dieselr": [27.93], "marca2": "UNO", "marca": "UNO", "direccion": "Atr\u00e1s de la Basilica de Guadalupe", "gasos": [34.52], "gasor": [31.61], "kerosine": [0.0], "lat": 12.62611389, "nombre": "Uno Sur", "id": "CHI0205"}, {"diesela": [0.0], "lon": -87.12052222, "dieselr": [27.93], "marca2": "UNO", "marca": "UNO", "direccion": "Entrada a Chinandega,  Rotonda Los Encuentros", "gasos": [34.52], "gasor": [31.6], "kerosine": [0.0], "lat": 12.62380833, "nombre": "Uno Los Encuentros", "id": "CHI0206"}, {"diesela": [0.0], "lon": -87.12010556, "dieselr": [27.96], "marca2": "DNP", "marca": "DNP", "direccion": "Rotonda Los Encuentros. Km 132 Carretera a Corinto", "gasos": [34.56], "gasor": [31.63], "kerosine": [0.0], "lat": 12.62231389, "nombre": "Petronic Chinandega", "id": "CHI0207"}, {"diesela": [0.0], "lon": -87.13405833, "dieselr": [27.96], "marca2": "DNP", "marca": "DNP", "direccion": "Esquina opuesta a la Iglesia Cataloica Santa Ana.", "gasos": [0.0], "gasor": [0.0], "kerosine": [0.0], "lat": 12.63183611, "nombre": "Petronic Sta. Ana Chinandega", "id": "CHI0208"}, {"diesela": [0.0], "lon": -87.12779167, "dieselr": [28.49], "marca2": "DNP", "marca": "DNP", "direccion": "", "gasos": [34.52], "gasor": [0.0], "kerosine": [0.0], "lat": 12.63986667, "nombre": "Petronic Panamericana", "id": "CHI0209"}, {"diesela": [0.0], "lon": -87.134125, "dieselr": [27.96], "marca2": "DNP", "marca": "DNP", "direccion": "Chinandega", "gasos": [34.56], "gasor": [31.63], "kerosine": [0.0], "lat": 12.6315694, "nombre": "DNP/PETRONIC", "id": "CHI0210"}, {"diesela": [0.0], "lon": -87.19893333, "dieselr": [28.0], "marca2": "DNP", "marca": "DNP", "direccion": "Salida al desvio de PasoCaballos", "gasos": [34.52], "gasor": [0.0], "kerosine": [0.0], "lat": 12.51426389, "nombre": "Petronic Corinto \"Casta\u00f1ones\"", "id": "CHI0301"}, {"diesela": [0.0], "lon": -87.16691667, "dieselr": [28.5], "marca2": "UNO", "marca": "UNO", "direccion": "Contiguo a Basilica Inmaculada Concepci\u00f3n", "gasos": [34.5], "gasor": [31.65], "kerosine": [0.0], "lat": 12.66168333, "nombre": "Uno El viejo", "id": "CHI0401"}, {"diesela": [0.0], "lon": -87.16024444, "dieselr": [28.49], "marca2": "UNO", "marca": "UNO", "direccion": "Entrada al Municipio de El Viejo.", "gasos": [34.51], "gasor": [31.71], "kerosine": [0.0], "lat": 12.65370556, "nombre": "Uno CADEV", "id": "CHI0402"}, {"diesela": [0.0], "lon": -87.16684167, "dieselr": [28.0], "marca2": "DNP", "marca": "DNP", "direccion": "Iglesia Basilica 2C. al Sur", "gasos": [34.56], "gasor": [31.65], "kerosine": [0.0], "lat": 12.65877222, "nombre": "Petronic El Viejo", "id": "CHI0403"}, {"diesela": [0.0], "lon": -86.89856389, "dieselr": [0.0], "marca2": "UNO", "marca": "UNO", "direccion": "Somotillo", "gasos": [0.0], "gasor": [0.0], "kerosine": [0.0], "lat": 13.03299167, "nombre": "Uno Somotillo", "id": "CHI0501"}, {"diesela": [0.0], "lon": -86.84439167, "dieselr": [0.0], "marca2": "DNP", "marca": "DNP", "direccion": "Entrada Principal a Villa Nueva.", "gasos": [0.0], "gasor": [0.0], "kerosine": [0.0], "lat": 12.95259444, "nombre": "Petronic Villa Nueva", "id": "CHI0601"}, {"diesela": [0.0], "lon": -85.16716667, "dieselr": [0.0], "marca2": "DNP", "marca": "DNP", "direccion": "Entrada a la Ciudad de Acoyapa", "gasos": [0.0], "gasor": [0.0], "kerosine": [0.0], "lat": 11.9685, "nombre": "Petronic Acoyapa", "id": "CHO0101"}, {"diesela": [0.0], "lon": -85.36922222, "dieselr": [29.2], "marca2": "Puma", "marca": "PUM", "direccion": "Esquina opuesta a Cooperativa Rogelio Sandoval", "gasos": [33.98], "gasor": [0.0], "kerosine": [0.0], "lat": 12.10635278, "nombre": "Puma Juigalpa", "id": "CHO0201"}, {"diesela": [29.55], "lon": -85.36998611, "dieselr": [29.05], "marca2": "UNO", "marca": "UNO", "direccion": "Radio Centro 1/2c Al Sur,   Juigalpa\n  Chontales", "gasos": [34.23], "gasor": [32.05], "kerosine": [0.0], "lat": 12.10765556, "nombre": "Uno Asunci\u00f3n", "id": "CHO0202"}, {"diesela": [0.0], "lon": -85.37156667, "dieselr": [0.0], "marca2": "DNP", "marca": "DNP", "direccion": "Entrada a la Ciudad de Juigalpa", "gasos": [0.0], "gasor": [0.0], "kerosine": [0.0], "lat": 12.11117778, "nombre": "Petronic Juigalpa 1", "id": "CHO0203"}, {"diesela": [0.0], "lon": -85.35359444, "dieselr": [28.95], "marca2": "DNP", "marca": "DNP", "direccion": "Salida hacia Acoyapa.", "gasos": [33.95], "gasor": [0.0], "kerosine": [0.0], "lat": 12.09386111, "nombre": "Petronic Juigalpa 2", "id": "CHO0204"}, {"diesela": [0.0], "lon": -85.3675167, "dieselr": [28.65], "marca2": "Independiente", "marca": "IND", "direccion": " Juigalpa", "gasos": [33.82], "gasor": [0.0], "kerosine": [0.0], "lat": 12.1048444, "nombre": "Lubricentro Alvarez", "id": "CHO0205"}, {"diesela": [0.0], "lon": -84.7604, "dieselr": [0.0], "marca2": "DNP", "marca": "DNP", "direccion": "Km 224 Carretera al Rama", "gasos": [0.0], "gasor": [0.0], "kerosine": [0.0], "lat": 11.99382222, "nombre": "Petronic La Gateada", "id": "CHO0301"}, {"diesela": [0.0], "lon": -85.10366111, "dieselr": [0.0], "marca2": "DNP", "marca": "DNP", "direccion": "Entrada a Santo Tomas.", "gasos": [0.0], "gasor": [0.0], "kerosine": [0.0], "lat": 12.06656944, "nombre": "Petronic Santo Tomas", "id": "CHO0401"}, {"diesela": [0.0], "lon": -85.09667778, "dieselr": [0.0], "marca2": "Independiente", "marca": "IND", "direccion": "KM 178 1/2 Carretera a El Rama.", "gasos": [0.0], "gasor": [0.0], "kerosine": [0.0], "lat": 12.06990833, "nombre": "Independiente Servicem", "id": "CHO0402"}, {"diesela": [0.0], "lon": -85.09190833, "dieselr": [0.0], "marca2": "Independiente", "marca": "IND", "direccion": "Frente al Restaurante La Herradura.", "gasos": [0.0], "gasor": [0.0], "kerosine": [0.0], "lat": 12.06744722, "nombre": "Independiente Santo Tomas", "id": "CHO0403"}, {"diesela": [0.0], "lon": -86.23948611, "dieselr": [27.24], "marca2": "Puma", "marca": "PUM", "direccion": "Contigua a Colonia La Inmaculada", "gasos": [34.13], "gasor": [31.28], "kerosine": [0.0], "lat": 11.86648611, "nombre": "Puma Inmaculada", "id": "CZO0101"}, {"diesela": [0.0], "lon": -86.23889722, "dieselr": [27.24], "marca2": "UNO", "marca": "UNO", "direccion": "Contiguo a la Colonia Inmaculada,  Carretera Panamericana.", "gasos": [0.0], "gasor": [31.29], "kerosine": [0.0], "lat": 11.86073056, "nombre": "Uno Diriamba 1", "id": "CZO0102"}, {"diesela": [0.0], "lon": -86.23684444, "dieselr": [27.24], "marca2": "UNO", "marca": "UNO", "direccion": "De Enel 2C. al Sur.", "gasos": [34.13], "gasor": [31.28], "kerosine": [0.0], "lat": 11.85883056, "nombre": "Uno Diriamba 2", "id": "CZO0103"}, {"diesela": [0.0], "lon": -86.20283889, "dieselr": [27.24], "marca2": "Puma", "marca": "PUM", "direccion": "Barrio San Jos\u00e9 Frente a Bomberos", "gasos": [34.13], "gasor": [31.28], "kerosine": [0.0], "lat": 11.85144167, "nombre": "Puma Jinotepe", "id": "CZO0201"}, {"diesela": [27.5], "lon": -86.19529444, "dieselr": [27.24], "marca2": "UNO", "marca": "UNO", "direccion": "Frente Iglesia El Calvario,  Barrio San Felipe", "gasos": [34.13], "gasor": [31.28], "kerosine": [0.0], "lat": 11.84938333, "nombre": "Uno Santiago", "id": "CZO0202"}, {"diesela": [0.0], "lon": -86.19506667, "dieselr": [27.24], "marca2": "UNO", "marca": "UNO", "direccion": "Frente Iglesia El Calvario,  Barrio San Felipe", "gasos": [34.13], "gasor": [31.28], "kerosine": [0.0], "lat": 11.84912222, "nombre": "Uno Jinotepe/San Jos\u00e9", "id": "CZO0203"}, {"diesela": [0.0], "lon": -86.18676667, "dieselr": [27.29], "marca2": "DNP", "marca": "DNP", "direccion": "Salida a Nandaime,  Carretera Panamericana", "gasos": [34.18], "gasor": [31.28], "kerosine": [0.0], "lat": 11.84036111, "nombre": "Petronic Jinotepe", "id": "CZO0204"}, {"diesela": [0.0], "lon": -86.20568056, "dieselr": [27.24], "marca2": "UNO", "marca": "UNO", "direccion": "Parque Central 1C. al Oeste. San Marcos", "gasos": [34.13], "gasor": [31.28], "kerosine": [0.0], "lat": 11.90912222, "nombre": "Uno San Marcos", "id": "CZO0301"}, {"diesela": [0.0], "lon": -86.3997, "dieselr": [28.8], "marca2": "DNP", "marca": "DNP", "direccion": "Km 186 Carretera Panamerica Norte.", "gasos": [36.65], "gasor": [0.0], "kerosine": [0.0], "lat": 13.37235556, "nombre": "Petronic Condega", "id": "EST0101"}, {"diesela": [0.0], "lon": -86.36921667, "dieselr": [29.1], "marca2": "Independiente", "marca": "IND", "direccion": "Km.144 Carretera a Estel\u00ed", "gasos": [36.5], "gasor": [0.0], "kerosine": [0.0], "lat": 13.2482, "nombre": "Independiente Saavedra", "id": "EST0102"}, {"diesela": [0.0], "lon": -86.35151667, "dieselr": [27.76], "marca2": "Puma", "marca": "PUM", "direccion": "Frente al Costado Sur de La Polic\u00eda de Tr\u00e1nsito", "gasos": [35.76], "gasor": [0.0], "kerosine": [0.0], "lat": 13.096825, "nombre": "Puma Internacional", "id": "EST0201"}, {"diesela": [27.76], "lon": -86.351975, "dieselr": [27.51], "marca2": "UNO", "marca": "UNO", "direccion": "Km 147.5 Carretera Panamerica Norte", "gasos": [35.76], "gasor": [0.0], "kerosine": [0.0], "lat": 13.092425, "nombre": "Uno Estel\u00ed", "id": "EST0202"}, {"diesela": [0.0], "lon": -86.35274722, "dieselr": [27.99], "marca2": "UNO", "marca": "UNO", "direccion": "Km 150 Carretera Panamericana Norte", "gasos": [35.83], "gasor": [35.35], "kerosine": [0.0], "lat": 13.10327778, "nombre": "Uno Estel\u00ed Norte", "id": "EST0203"}, {"diesela": [28.58], "lon": -86.35180556, "dieselr": [28.32], "marca2": "UNO", "marca": "UNO", "direccion": "Contiguo a Tropigas Estel\u00ed", "gasos": [35.48], "gasor": [35.72], "kerosine": [0.0], "lat": 13.08345833, "nombre": "Uno Esquipulas", "id": "EST0204"}, {"diesela": [0.0], "lon": -86.35070833, "dieselr": [27.82], "marca2": "DNP", "marca": "DNP", "direccion": "Km 146 Carretera Panamerica Norte", "gasos": [35.74], "gasor": [0.0], "kerosine": [0.0], "lat": 13.07032222, "nombre": "Petronic  Estel\u00ed I", "id": "EST0205"}, {"diesela": [0.0], "lon": -86.35669167, "dieselr": [28.34], "marca2": "DNP", "marca": "DNP", "direccion": "Del Almac\u00e9n Sony  1C al Este.", "gasos": [35.76], "gasor": [0.0], "kerosine": [0.0], "lat": 13.08740278, "nombre": "Petronic Estel\u00ed El Carmen", "id": "EST0207"}, {"diesela": [0.0], "lon": -86.34664444, "dieselr": [28.32], "marca2": "Independiente", "marca": "IND", "direccion": "Entrada  a Estel\u00ed km. 145", "gasos": [35.85], "gasor": [0.0], "kerosine": [0.0], "lat": 13.06326944, "nombre": "Independiente  Servicentro Mairena", "id": "EST0208"}, {"diesela": [0.0], "lon": -86.23317778, "dieselr": [0.0], "marca2": "DNP", "marca": "DNP", "direccion": "Km 122 Carretera Panamerica Norte.", "gasos": [0.0], "gasor": [0.0], "kerosine": [0.0], "lat": 12.96620833, "nombre": "Petronic La Trinidad", "id": "EST0301"}, {"diesela": [0.0], "lon": -86.05056667, "dieselr": [27.92], "marca2": "Independiente", "marca": "IND", "direccion": "Entrada a Diri\u00e1.", "gasos": [34.11], "gasor": [0.0], "kerosine": [0.0], "lat": 11.88019722, "nombre": "Independiente Shalom", "id": "GRA0101"}, {"diesela": [0.0], "lon": -86.04552222, "dieselr": [27.5], "marca2": "DNP", "marca": "DNP", "direccion": "Entrada a la Ciudad de Diriomo", "gasos": [34.2], "gasor": [0.0], "kerosine": [0.0], "lat": 11.87640556, "nombre": "Petronic Diriomo", "id": "GRA0201"}, {"diesela": [0.0], "lon": -85.96284722, "dieselr": [27.09], "marca2": "Puma", "marca": "PUM", "direccion": "Km 46 Carretera a Granada. Frente a Colegio Inmaculada", "gasos": [34.1], "gasor": [31.31], "kerosine": [0.0], "lat": 11.93660278, "nombre": "Puma Cocibolca", "id": "GRA0301"}, {"diesela": [28.45], "lon": -85.96224444, "dieselr": [27.95], "marca2": "UNO", "marca": "UNO", "direccion": "Km 46 Carretera a Granada. Frente a Colegio Inmaculada", "gasos": [34.11], "gasor": [31.31], "kerosine": [0.0], "lat": 11.93604722, "nombre": "Uno Guapinol", "id": "GRA0302"}, {"diesela": [0.0], "lon": -85.95535, "dieselr": [27.95], "marca2": "UNO", "marca": "UNO", "direccion": "Del Mercado Municipal 1C. al Sur.", "gasos": [34.11], "gasor": [31.31], "kerosine": [0.0], "lat": 11.92528056, "nombre": "Uno Palmira", "id": "GRA0303"}, {"diesela": [0.0], "lon": -85.96214167, "dieselr": [27.42], "marca2": "DNP", "marca": "DNP", "direccion": "Calle El Consulado, frente al Asilo de Ancianos.", "gasos": [34.17], "gasor": [31.46], "kerosine": [0.0], "lat": 11.93205556, "nombre": "Petronic Granada", "id": "GRA0304"}, {"diesela": [0.0], "lon": -85.92925278, "dieselr": [0.0], "marca2": "DNP", "marca": "DNP", "direccion": "Club Cocibolca, Puerto Asese", "gasos": [35.4], "gasor": [0.0], "kerosine": [0.0], "lat": 11.89956389, "nombre": "Petronic Puerto Asese", "id": "GRA0305"}, {"diesela": [27.49], "lon": -86.04686111, "dieselr": [27.24], "marca2": "UNO", "marca": "UNO", "direccion": "Km 67 Carretera Panamerica Sur.", "gasos": [34.13], "gasor": [31.28], "kerosine": [0.0], "lat": 11.75895, "nombre": "Uno Nandaime", "id": "GRA0401"}, {"diesela": [0.0], "lon": -86.04661389, "dieselr": [27.8], "marca2": "UNO", "marca": "UNO", "direccion": "Km 66 Carretera Panamericana,  Nandaime", "gasos": [34.11], "gasor": [31.29], "kerosine": [26.0], "lat": 11.75813889, "nombre": "Uno Santa Teresa", "id": "GRA0402"}, {"diesela": [0.0], "lon": -86.00201667, "dieselr": [0.0], "marca2": "Puma", "marca": "PUM", "direccion": "Parque La Uni\u00f3n 150 metros al Oeste.", "gasos": [0.0], "gasor": [0.0], "kerosine": [0.0], "lat": 13.09285556, "nombre": "Puma Las Brumas", "id": "JIN0101"}, {"diesela": [0.0], "lon": -85.99996111, "dieselr": [0.0], "marca2": "UNO", "marca": "UNO", "direccion": "Frente al Parque Otto Casco", "gasos": [0.0], "gasor": [0.0], "kerosine": [0.0], "lat": 13.08892778, "nombre": "Uno Jinotega", "id": "JIN0102"}, {"diesela": [0.0], "lon": -85.99814167, "dieselr": [0.0], "marca2": "DNP", "marca": "DNP", "direccion": "Barrio Mauricio Altamirano", "gasos": [0.0], "gasor": [0.0], "kerosine": [0.0], "lat": 13.09317778, "nombre": "Petronic Jinotega El Carmen", "id": "JIN0103"}, {"diesela": [0.0], "lon": -86.00088333, "dieselr": [0.0], "marca2": "DNP", "marca": "DNP", "direccion": "Carretera a San Rafael del Norte.", "gasos": [0.0], "gasor": [0.0], "kerosine": [0.0], "lat": 13.10164722, "nombre": "Petronic Jinotega \"San Crist\u00f3bal\"", "id": "JIN0104"}, {"diesela": [0.0], "lon": -85.99955833, "dieselr": [0.0], "marca2": "Independiente", "marca": "IND", "direccion": "Jinotega", "gasos": [0.0], "gasor": [0.0], "kerosine": [0.0], "lat": 13.09998889, "nombre": "SERVICENTRO/Apanas", "id": "JIN0105"}, {"diesela": [0.0], "lon": -85.99356111, "dieselr": [0.0], "marca2": "Puma", "marca": "PUM", "direccion": "Frente estadio", "gasos": [0.0], "gasor": [0.0], "kerosine": [0.0], "lat": 13.08605, "nombre": "Puma Chag\u00fcite", "id": "JIN0106"}, {"diesela": [0.0], "lon": -86.005875, "dieselr": [0.0], "marca2": "DNP", "marca": "DNP", "direccion": "Jinotega", "gasos": [0.0], "gasor": [0.0], "kerosine": [0.0], "lat": 13.11028889, "nombre": "Petronic El Chipote", "id": "JIN0107"}, {"diesela": [0.0], "lon": -85.53993611, "dieselr": [0.0], "marca2": "DNP", "marca": "DNP", "direccion": "Frente al Parque Central El Cua,  Bocay", "gasos": [0.0], "gasor": [0.0], "kerosine": [0.0], "lat": 13.54187222, "nombre": "Petronic San Jos\u00e9 de Bocay", "id": "JIN0201"}, {"diesela": [0.0], "lon": -86.11140278, "dieselr": [0.0], "marca2": "DNP", "marca": "DNP", "direccion": "Salida Norte de Jinotega", "gasos": [0.0], "gasor": [0.0], "kerosine": [0.0], "lat": 13.21193056, "nombre": "Petronic San Rafael del Norte", "id": "JIN0301"}, {"diesela": [0.0], "lon": -86.53945556, "dieselr": [0.0], "marca2": "DNP", "marca": "DNP", "direccion": "Parque Azul y Blanco 1C al Norte.", "gasos": [0.0], "gasor": [0.0], "kerosine": [0.0], "lat": 12.88250278, "nombre": "Petronic El Sauce", "id": "LEO0101"}, {"diesela": [0.0], "lon": -86.67841389, "dieselr": [0.0], "marca2": "Independiente", "marca": "IND", "direccion": "Antiguo Puesto Polic\u00eda 2C al Oeste,  Km 56 Carretera a Le\u00f3n", "gasos": [0.0], "gasor": [0.0], "kerosine": [0.0], "lat": 12.33505278, "nombre": "Independiente La Paz Centro", "id": "LEO0202"}, {"diesela": [0.0], "lon": -86.87566111, "dieselr": [28.02], "marca2": "Puma", "marca": "PUM", "direccion": "Km 90 Carretera a Le\u00f3n.", "gasos": [34.78], "gasor": [31.98], "kerosine": [0.0], "lat": 12.42376389, "nombre": "Puma El Para\u00edso", "id": "LEO0301"}, {"diesela": [0.0], "lon": -86.86764167, "dieselr": [27.7], "marca2": "Puma", "marca": "PUM", "direccion": "Km 96 Carretera a Chinandega.", "gasos": [34.99], "gasor": [32.06], "kerosine": [0.0], "lat": 12.45841944, "nombre": "Puma San Vicente", "id": "LEO0302"}, {"diesela": [0.0], "lon": -86.867975, "dieselr": [27.7], "marca2": "UNO", "marca": "UNO", "direccion": "Terminal de Buses Le\u00f3n", "gasos": [34.99], "gasor": [0.0], "kerosine": [0.0], "lat": 12.44352222, "nombre": "Uno Terminal de Buses", "id": "LEO0303"}, {"diesela": [27.95], "lon": -86.86905556, "dieselr": [27.7], "marca2": "UNO", "marca": "UNO", "direccion": "Salida a Chinandega,  Le\u00f3n", "gasos": [34.99], "gasor": [32.06], "kerosine": [0.0], "lat": 12.45635833, "nombre": "Uno San Vicente", "id": "LEO0304"}, {"diesela": [27.95], "lon": -86.87082222, "dieselr": [27.7], "marca2": "UNO", "marca": "UNO", "direccion": "Km 89.5 Carretera a Le\u00f3n.", "gasos": [34.99], "gasor": [32.06], "kerosine": [0.0], "lat": 12.42036389, "nombre": "Uno San Benito 1", "id": "LEO0305"}, {"diesela": [0.0], "lon": -86.89054444, "dieselr": [27.7], "marca2": "UNO", "marca": "UNO", "direccion": "Salida a Poneloya", "gasos": [34.99], "gasor": [32.06], "kerosine": [0.0], "lat": 12.43509722, "nombre": "Uno Guido", "id": "LEO0306"}, {"diesela": [0.0], "lon": -86.86809444, "dieselr": [27.7], "marca2": "UNO", "marca": "UNO", "direccion": "Contiguo a Edificio Central de La Polic\u00eda en Le\u00f3n", "gasos": [34.99], "gasor": [32.06], "kerosine": [0.0], "lat": 12.45729444, "nombre": "Uno Metropolitana", "id": "LEO0307"}, {"diesela": [0.0], "lon": -86.86613611, "dieselr": [27.7], "marca2": "DNP", "marca": "DNP", "direccion": "De la Polic\u00eda 3C al Este.", "gasos": [35.1], "gasor": [0.0], "kerosine": [0.0], "lat": 12.45581111, "nombre": "Petronic Mini Le\u00f3n By Pass", "id": "LEO0308"}, {"diesela": [0.0], "lon": -86.87461667, "dieselr": [27.74], "marca2": "DNP", "marca": "DNP", "direccion": "Del Mercado 2C al Norte.", "gasos": [35.02], "gasor": [0.0], "kerosine": [0.0], "lat": 12.43853333, "nombre": "Petronic Le\u00f3n \"San Juan\"", "id": "LEO0309"}, {"diesela": [0.0], "lon": -86.55515, "dieselr": [27.68], "marca2": "UNO", "marca": "UNO", "direccion": "Km 41 Carretera a Le\u00f3n", "gasos": [33.97], "gasor": [31.17], "kerosine": [0.0], "lat": 12.26996944, "nombre": "Uno Nagarote/Santiago", "id": "LEO0401"}, {"diesela": [0.0], "lon": -86.69075556, "dieselr": [0.0], "marca2": "DNP", "marca": "DNP", "direccion": "Empalme a Carretera a Puerto Sandino", "gasos": [0.0], "gasor": [0.0], "kerosine": [0.0], "lat": 12.21863056, "nombre": "Petronic Tizcuco", "id": "LEO0402"}, {"diesela": [0.0], "lon": -86.56445, "dieselr": [27.69], "marca2": "Puma", "marca": "PUM", "direccion": "Del Parque Central,  1 c/Sur,  2 c/Norte\n\u00a0Nagarote\n\u00a0Nicaragua", "gasos": [0.0], "gasor": [30.57], "kerosine": [0.0], "lat": 12.26592222, "nombre": "Puma Nagarote", "id": "LEO0403"}, {"diesela": [0.0], "lon": -86.40901667, "dieselr": [28.8], "marca2": "DNP", "marca": "DNP", "direccion": "Costado sur este de la iglesia cat\u00f3lica,  Palacaguina", "gasos": [36.4], "gasor": [0.0], "kerosine": [0.0], "lat": 13.45428333, "nombre": "Petronic Palacaguina", "id": "MAD0101"}, {"diesela": [0.0], "lon": -86.17425278, "dieselr": [0.0], "marca2": "DNP", "marca": "DNP", "direccion": "Entrada San Juan de R\u00edo Coco", "gasos": [0.0], "gasor": [0.0], "kerosine": [0.0], "lat": 13.54254444, "nombre": "Petronic San Juan de R\u00edo Coco", "id": "MAD0201"}, {"diesela": [0.0], "lon": -86.582125, "dieselr": [29.85], "marca2": "DNP", "marca": "DNP", "direccion": "Frente a la COTRAN,  Somoto", "gasos": [36.1], "gasor": [0.0], "kerosine": [0.0], "lat": 13.48754444, "nombre": "Petronic Somoto", "id": "MAD0301"}, {"diesela": [0.0], "lon": -86.57959167, "dieselr": [29.85], "marca2": "Puma", "marca": "PUM", "direccion": "Km 217 Carretera Panamericana.", "gasos": [35.83], "gasor": [0.0], "kerosine": [0.0], "lat": 13.4896, "nombre": "Puma Somoto", "id": "MAD0302"}, {"diesela": [0.0], "lon": -86.18999722, "dieselr": [27.29], "marca2": "DNP", "marca": "DNP", "direccion": "Iglesia Cat\u00f3lica 2C. Al Sur. La Concepci\u00f3n.", "gasos": [34.18], "gasor": [0.0], "kerosine": [0.0], "lat": 11.93865, "nombre": "Petronic La Concha", "id": "MAS0101"}, {"diesela": [0.0], "lon": -86.09567222, "dieselr": [27.39], "marca2": "Puma", "marca": "PUM", "direccion": "Km 29 Carretera a Masaya", "gasos": [34.13], "gasor": [31.31], "kerosine": [0.0], "lat": 11.98718889, "nombre": "Puma Masaya", "id": "MAS0201"}, {"diesela": [27.64], "lon": -86.09691944, "dieselr": [27.39], "marca2": "UNO", "marca": "UNO", "direccion": "Entrada principal a la Ciudad de Masaya.", "gasos": [34.13], "gasor": [31.31], "kerosine": [0.0], "lat": 11.98790278, "nombre": "Uno Las Flores", "id": "MAS0202"}, {"diesela": [27.64], "lon": -86.09476667, "dieselr": [27.39], "marca2": "UNO", "marca": "UNO", "direccion": "De la Iglesia San Jer\u00f3nimo 2C. al Oeste.", "gasos": [34.13], "gasor": [31.31], "kerosine": [0.0], "lat": 11.97857778, "nombre": "Uno San Jer\u00f3nimo", "id": "MAS0203"}, {"diesela": [27.64], "lon": -86.09653333, "dieselr": [27.39], "marca2": "UNO", "marca": "UNO", "direccion": "Km 28 Carretera a Masaya.", "gasos": [34.13], "gasor": [31.31], "kerosine": [0.0], "lat": 11.98248611, "nombre": "Uno Coyotepe", "id": "MAS0204"}, {"diesela": [0.0], "lon": -86.09720833, "dieselr": [27.39], "marca2": "UNO", "marca": "UNO", "direccion": "Km 29 Carretera a Masaya", "gasos": [34.13], "gasor": [31.31], "kerosine": [0.0], "lat": 11.98896389, "nombre": "Uno  Masaya", "id": "MAS0205"}, {"diesela": [0.0], "lon": -86.09655556, "dieselr": [27.39], "marca2": "DNP", "marca": "DNP", "direccion": "Entrada principal a la Ciudad de Masaya 2C. Al Sur.", "gasos": [34.13], "gasor": [0.0], "kerosine": [0.0], "lat": 11.98590556, "nombre": "Petronic Masaya", "id": "MAS0206"}, {"diesela": [0.0], "lon": -86.11513889, "dieselr": [27.39], "marca2": "Puma", "marca": "PUM", "direccion": "Km 26 Carretera a Masaya", "gasos": [34.13], "gasor": [31.31], "kerosine": [0.0], "lat": 11.99941111, "nombre": "Puma Nindir\u00ed", "id": "MAS0301"}, {"diesela": [27.56], "lon": -86.14637222, "dieselr": [27.31], "marca2": "UNO", "marca": "UNO", "direccion": "Entrada a Masatepe", "gasos": [34.19], "gasor": [31.3], "kerosine": [0.0], "lat": 11.9087, "nombre": "Uno Masatepe", "id": "MAS0401"}, {"diesela": [0.0], "lon": -86.14023333, "dieselr": [27.29], "marca2": "DNP", "marca": "DNP", "direccion": "Entrada a la Ciudad de Masatepe", "gasos": [34.18], "gasor": [0.0], "kerosine": [0.0], "lat": 11.90956111, "nombre": "Petronic Masatepe", "id": "MAS0402"}, {"diesela": [0.0], "lon": -86.12618333, "dieselr": [0.0], "marca2": "UNO", "marca": "UNO", "direccion": "Bo Nuevo Fte a T Gonz\u00e1lez -\u00a0Ciudad Dar\u00edo\u00a0MT", "gasos": [0.0], "gasor": [0.0], "kerosine": [0.0], "lat": 12.73445, "nombre": "Uno Dar\u00edo", "id": "MAT0101"}, {"diesela": [0.0], "lon": -85.90415, "dieselr": [29.98], "marca2": "Puma", "marca": "PUM", "direccion": "Carretera al Tuma Barrio Las Mar\u00edas.", "gasos": [35.9], "gasor": [33.76], "kerosine": [0.0], "lat": 12.94107222, "nombre": "Puma Las Mar\u00edas", "id": "MAT0201"}, {"diesela": [0.0], "lon": -85.92045, "dieselr": [30.09], "marca2": "Puma", "marca": "PUM", "direccion": "Salida a Jinotega", "gasos": [35.95], "gasor": [33.82], "kerosine": [0.0], "lat": 12.93618611, "nombre": "Puma San Martin", "id": "MAT0202"}, {"diesela": [30.34], "lon": -85.92986944, "dieselr": [30.09], "marca2": "UNO", "marca": "UNO", "direccion": "Salida a Managua.", "gasos": [35.95], "gasor": [33.82], "kerosine": [0.0], "lat": 12.92056111, "nombre": "Uno La Virgen", "id": "MAT0204"}, {"diesela": [0.0], "lon": -85.90663889, "dieselr": [29.98], "marca2": "UNO", "marca": "UNO", "direccion": "Km 132 Carretera a San Ram\u00f3n. Barrio Las Mar\u00edas.", "gasos": [35.9], "gasor": [33.76], "kerosine": [0.0], "lat": 12.93861389, "nombre": "Uno Estrella del Norte", "id": "MAT0205"}, {"diesela": [0.0], "lon": -85.92146111, "dieselr": [30.17], "marca2": "UNO", "marca": "UNO", "direccion": "Parque Dar\u00edo 1C al Oeste y 1C al Sur.", "gasos": [36.04], "gasor": [33.83], "kerosine": [0.0], "lat": 12.920925, "nombre": "Uno Matagalpa", "id": "MAT0206"}, {"diesela": [0.0], "lon": -85.95075556, "dieselr": [29.07], "marca2": "DNP", "marca": "DNP", "direccion": "Km 126 Carretera a Matagalpa", "gasos": [35.76], "gasor": [33.31], "kerosine": [0.0], "lat": 12.91003611, "nombre": "Petronic Matagalpa", "id": "MAT0207"}, {"diesela": [0.0], "lon": -85.4492667, "dieselr": [0.0], "marca2": "Independiente", "marca": "IND", "direccion": "Antiguo Prolacas 150 metros al Este.", "gasos": [0.0], "gasor": [0.0], "kerosine": [0.0], "lat": 12.8317556, "nombre": "Independiente Surtidora de Diesel Matigu\u00e1s", "id": "MAT0301"}, {"diesela": [0.0], "lon": -85.4528472, "dieselr": [0.0], "marca2": "Independiente", "marca": "IND", "direccion": "Contiguo al Bar S1000 (Esmilce)", "gasos": [0.0], "gasor": [0.0], "kerosine": [0.0], "lat": 12.8332639, "nombre": "Independiente Matigu\u00e1s", "id": "MAT0302"}, {"diesela": [0.0], "lon": -85.4363722, "dieselr": [0.0], "marca2": "Independiente", "marca": "IND", "direccion": "Empalme el Jobo Frente a Planta El\u00e9ctrica", "gasos": [0.0], "gasor": [0.0], "kerosine": [0.0], "lat": 12.8266444, "nombre": "Independiente Girasol Matigu\u00e1s", "id": "MAT0303"}, {"diesela": [0.0], "lon": -85.22631944, "dieselr": [0.0], "marca2": "UNO", "marca": "UNO", "direccion": "Frente a Bancentro", "gasos": [0.0], "gasor": [0.0], "kerosine": [0.0], "lat": 12.92790278, "nombre": "Uno Rio Blanco", "id": "MAT0401"}, {"diesela": [0.0], "lon": -85.22348333, "dieselr": [0.0], "marca2": "Independiente", "marca": "IND", "direccion": "Frente Mercado Municipal.", "gasos": [0.0], "gasor": [0.0], "kerosine": [0.0], "lat": 12.92522778, "nombre": "Independiente Rio Blanco", "id": "MAT0402"}, {"diesela": [0.0], "lon": -85.23273333, "dieselr": [0.0], "marca2": "Independiente", "marca": "IND", "direccion": "Contiguo al Deposito de la Pepsi Carretera a Matigu\u00e1s.", "gasos": [0.0], "gasor": [0.0], "kerosine": [0.0], "lat": 12.92870556, "nombre": "Independiente Las Colinas", "id": "MAT0403"}, {"diesela": [0.0], "lon": -86.19318889, "dieselr": [0.0], "marca2": "UNO", "marca": "UNO", "direccion": "Km 118 Carretera Panamerica Norte", "gasos": [0.0], "gasor": [0.0], "kerosine": [0.0], "lat": 12.92452778, "nombre": "Uno San Isidro", "id": "MAT0501"}, {"diesela": [0.0], "lon": -85.84055833, "dieselr": [0.0], "marca2": "DNP", "marca": "DNP", "direccion": "Contiguo a La Polic\u00eda de San Ram\u00f3n.", "gasos": [0.0], "gasor": [0.0], "kerosine": [0.0], "lat": 12.92437778, "nombre": "Petronic San Ram\u00f3n (Matagalpa)", "id": "MAT0601"}, {"diesela": [0.0], "lon": -86.102375, "dieselr": [0.0], "marca2": "DNP", "marca": "DNP", "direccion": "Entrada a la ciudad de S\u00e9baco", "gasos": [0.0], "gasor": [0.0], "kerosine": [0.0], "lat": 12.84377778, "nombre": "Petronic S\u00e9baco", "id": "MAT0701"}, {"diesela": [0.0], "lon": -86.09846667, "dieselr": [0.0], "marca2": "UNO", "marca": "UNO", "direccion": "Empalme de S\u00e9baco.", "gasos": [0.0], "gasor": [0.0], "kerosine": [0.0], "lat": 12.853125, "nombre": "Uno S\u00e9baco", "id": "MAT0702"}, {"diesela": [0.0], "lon": -85.7941111, "dieselr": [0.0], "marca2": "DNP", "marca": "DNP", "direccion": "Frente a Cementerio Municipal", "gasos": [0.0], "gasor": [0.0], "kerosine": [0.0], "lat": 12.6561694, "nombre": "Petronic Esquipulas (Matagalpa)", "id": "MAT0801"}, {"diesela": [0.0], "lon": -85.6325222, "dieselr": [0.0], "marca2": "Independiente", "marca": "IND", "direccion": "Terminal de Buses 5 cuadras al Norte.", "gasos": [0.0], "gasor": [0.0], "kerosine": [0.0], "lat": 12.7645083, "nombre": "Independiente Muy Muy", "id": "MAT0901"}, {"diesela": [0.0], "lon": -86.31755556, "dieselr": [27.12], "marca2": "Puma", "marca": "PUM", "direccion": "Km 8.5 Carretera Sur.  Altos de Nejapa", "gasos": [33.98], "gasor": [31.16], "kerosine": [0.0], "lat": 12.10682778, "nombre": "Puma Nejapa", "id": "MGA0101"}, {"diesela": [0.0], "lon": -86.31374167, "dieselr": [27.12], "marca2": "Puma", "marca": "PUM", "direccion": "Km 7 Carretera Sur.", "gasos": [33.98], "gasor": [31.16], "kerosine": [0.0], "lat": 12.12243611, "nombre": "Puma 7 Sur", "id": "MGA0102"}, {"diesela": [0.0], "lon": -86.300975, "dieselr": [26.6], "marca2": "UNO", "marca": "UNO", "direccion": "Mercado Israel Lewites Pisa Batahola.", "gasos": [0.0], "gasor": [0.0], "kerosine": [0.0], "lat": 12.12871111, "nombre": "Uno Mercado Israel Lewites", "id": "MGA0103"}, {"diesela": [27.37], "lon": -86.31508611, "dieselr": [27.12], "marca2": "UNO", "marca": "UNO", "direccion": "Km 7.5 Carretera Sur.", "gasos": [33.98], "gasor": [31.16], "kerosine": [0.0], "lat": 12.11895278, "nombre": "Uno Nejapa", "id": "MGA0104"}, {"diesela": [27.37], "lon": -86.31306111, "dieselr": [27.12], "marca2": "UNO", "marca": "UNO", "direccion": "Km 7 Carretera Sur.", "gasos": [33.98], "gasor": [31.16], "kerosine": [0.0], "lat": 12.12253333, "nombre": "Uno 7 Sur", "id": "MGA0105"}, {"diesela": [0.0], "lon": -86.32423333, "dieselr": [0.0], "marca2": "UNO", "marca": "UNO", "direccion": "Km 10.5 Carretera Sur. Altos de Ticomo", "gasos": [0.0], "gasor": [0.0], "kerosine": [0.0], "lat": 12.09141667, "nombre": "Uno Ticomo", "id": "MGA0106"}, {"diesela": [0.0], "lon": -86.475975, "dieselr": [0.0], "marca2": "DNP", "marca": "DNP", "direccion": "Empalme Carretera Vieja a Le\u00f3n.", "gasos": [0.0], "gasor": [0.0], "kerosine": [0.0], "lat": 12.06584167, "nombre": "Petronic Los Cedros", "id": "MGA0107"}, {"diesela": [27.37], "lon": -86.32389167, "dieselr": [27.12], "marca2": "UNO", "marca": "UNO", "direccion": "Km 10 Carretera Sur. Altos de Ticomo", "gasos": [33.98], "gasor": [31.16], "kerosine": [0.0], "lat": 12.09545, "nombre": "Uno El Triangulo", "id": "MGA0108"}, {"diesela": [0.0], "lon": -86.23835, "dieselr": [27.12], "marca2": "Puma", "marca": "PUM", "direccion": "Frente a Cementerio Oriental.", "gasos": [33.98], "gasor": [31.16], "kerosine": [0.0], "lat": 12.14100833, "nombre": "Puma Salvadorita", "id": "MGA0201"}, {"diesela": [0.0], "lon": -86.2319, "dieselr": [27.12], "marca2": "Puma", "marca": "PUM", "direccion": "Sem\u00e1foros de Ruben\u00eda.", "gasos": [33.98], "gasor": [31.16], "kerosine": [0.0], "lat": 12.12994167, "nombre": "Puma Ruben\u00eda", "id": "MGA0202"}, {"diesela": [0.0], "lon": -86.22412778, "dieselr": [27.12], "marca2": "Puma", "marca": "PUM", "direccion": "Rotonda Larreynaga donde esta la Virgen.", "gasos": [33.98], "gasor": [31.16], "kerosine": [0.0], "lat": 12.14417778, "nombre": "Puma Larreynaga", "id": "MGA0203"}, {"diesela": [27.37], "lon": -86.23432778, "dieselr": [27.12], "marca2": "UNO", "marca": "UNO", "direccion": "Rotonda Bello Horizonte.", "gasos": [33.98], "gasor": [31.16], "kerosine": [0.0], "lat": 12.14616667, "nombre": "Uno Bello Horizonte", "id": "MGA0204"}, {"diesela": [0.0], "lon": -86.22028889, "dieselr": [27.12], "marca2": "UNO", "marca": "UNO", "direccion": "Entrada a Colonia Primero de Mayo 2C. al Este.", "gasos": [33.98], "gasor": [31.16], "kerosine": [0.0], "lat": 12.12843611, "nombre": "Uno Las Am\u00e9ricas", "id": "MGA0205"}, {"diesela": [0.0], "lon": -86.20301389, "dieselr": [27.15], "marca2": "DNP", "marca": "DNP", "direccion": "Contiguo al Plantel Petrogas Pista al Mayoreo", "gasos": [34.0], "gasor": [31.13], "kerosine": [0.0], "lat": 12.12834167, "nombre": "Petronic \"Coop. 2 de Agosto\"", "id": "MGA0206"}, {"diesela": [0.0], "lon": -86.24167778, "dieselr": [27.15], "marca2": "DNP", "marca": "DNP", "direccion": "Intersecci\u00f3n Sem\u00e1foros de la Larreynaga. Barrio Costa Rica", "gasos": [34.0], "gasor": [31.13], "kerosine": [0.0], "lat": 12.14567222, "nombre": "Petronic Larreynaga", "id": "MGA0207"}, {"diesela": [0.0], "lon": -86.30424167, "dieselr": [27.12], "marca2": "Puma", "marca": "PUM", "direccion": "Sem\u00e1foros de Linda Vista", "gasos": [33.98], "gasor": [31.16], "kerosine": [0.0], "lat": 12.151975, "nombre": "Puma Linda Vista", "id": "MGA0301"}, {"diesela": [27.37], "lon": -86.30489722, "dieselr": [27.12], "marca2": "UNO", "marca": "UNO", "direccion": "Sem\u00e1foros de Linda Vista Carretera a la Refiner\u00eda.", "gasos": [33.98], "gasor": [31.16], "kerosine": [0.0], "lat": 12.15299167, "nombre": "Uno Las Brisas", "id": "MGA0302"}, {"diesela": [0.0], "lon": -86.30430278, "dieselr": [27.12], "marca2": "UNO", "marca": "UNO", "direccion": "Sem\u00e1foros de Linda Vista 200 metros al Sur.", "gasos": [33.98], "gasor": [31.16], "kerosine": [0.0], "lat": 12.15074444, "nombre": "Uno El Cortijo", "id": "MGA0303"}, {"diesela": [0.0], "lon": -86.29001389, "dieselr": [27.15], "marca2": "DNP", "marca": "DNP", "direccion": "Frente a Reencauchadora Santa Ana.", "gasos": [34.0], "gasor": [31.13], "kerosine": [0.0], "lat": 12.15775278, "nombre": "Petronic Santa Ana", "id": "MGA0304"}, {"diesela": [0.0], "lon": -86.282725, "dieselr": [27.12], "marca2": "Puma", "marca": "PUM", "direccion": "Barrio El Triunfo.", "gasos": [33.98], "gasor": [0.0], "kerosine": [0.0], "lat": 12.15559167, "nombre": "Puma San Sebasti\u00e1n", "id": "MGA0401"}, {"diesela": [0.0], "lon": -86.26751389, "dieselr": [27.12], "marca2": "Puma", "marca": "PUM", "direccion": "Contiguo al Instituto Loyola Dupla Norte.", "gasos": [33.98], "gasor": [31.16], "kerosine": [0.0], "lat": 12.15353056, "nombre": "Puma Loyola", "id": "MGA0402"}, {"diesela": [0.0], "lon": -86.28985833, "dieselr": [27.12], "marca2": "Puma", "marca": "PUM", "direccion": "De la Racachaca 1 cuadra Arriba.", "gasos": [33.98], "gasor": [31.16], "kerosine": [0.0], "lat": 12.13809167, "nombre": "Puma Gueguense", "id": "MGA0501"}, {"diesela": [0.0], "lon": -86.29571389, "dieselr": [27.12], "marca2": "Puma", "marca": "PUM", "direccion": "Km 4 Carretera Sur. Frente al Supermercado La Uni\u00f3n.", "gasos": [33.98], "gasor": [31.16], "kerosine": [0.0], "lat": 12.14133333, "nombre": "Puma Panamericana", "id": "MGA0502"}, {"diesela": [0.0], "lon": -86.29338056, "dieselr": [27.12], "marca2": "Puma", "marca": "PUM", "direccion": "De donde fue la Nunciatura Apost\u00f3lica 2 C. Norte y 2 C. al Este.", "gasos": [33.98], "gasor": [31.16], "kerosine": [26.69], "lat": 12.13209722, "nombre": "Puma Altagracia", "id": "MGA0503"}, {"diesela": [0.0], "lon": -86.29516667, "dieselr": [0.0], "marca2": "UNO", "marca": "UNO", "direccion": "Km 3.5 Carretera Sur Sem\u00e1foros del Guanacaste.", "gasos": [0.0], "gasor": [0.0], "kerosine": [0.0], "lat": 12.14194722, "nombre": "Uno Guanacaste", "id": "MGA0504"}, {"diesela": [27.37], "lon": -86.29679167, "dieselr": [27.12], "marca2": "UNO", "marca": "UNO", "direccion": "Km 4 Carretera Sur. Contiguo a McGregor", "gasos": [33.98], "gasor": [31.16], "kerosine": [0.0], "lat": 12.140525, "nombre": "Uno Batahola", "id": "MGA0505"}, {"diesela": [0.0], "lon": -86.28921667, "dieselr": [27.17], "marca2": "Independiente", "marca": "IND", "direccion": "Oficina Central de Budget Rent a Car Km 2.5 Carretera Sur", "gasos": [33.98], "gasor": [31.16], "kerosine": [0.0], "lat": 12.14532222, "nombre": "Independiente Budget", "id": "MGA0506"}, {"diesela": [27.37], "lon": -86.2931, "dieselr": [27.12], "marca2": "UNO", "marca": "UNO", "direccion": "Contiguo al Canal 6 de TV Km 3 Carretera Sur", "gasos": [33.98], "gasor": [31.16], "kerosine": [0.0], "lat": 12.14321667, "nombre": "Uno Las Palmas", "id": "MGA0507"}, {"diesela": [0.0], "lon": -86.24914444, "dieselr": [27.12], "marca2": "Puma", "marca": "PUM", "direccion": "Costado Norte del Centro Comercial Managua.", "gasos": [33.99], "gasor": [31.17], "kerosine": [0.0], "lat": 12.11776389, "nombre": "Puma Centro Comercial", "id": "MGA0601"}, {"diesela": [27.37], "lon": -86.25721389, "dieselr": [27.12], "marca2": "UNO", "marca": "UNO", "direccion": "Costado Oeste al Edificio Central de LAFISE. Carretera a Masaya.", "gasos": [33.98], "gasor": [31.16], "kerosine": [0.0], "lat": 12.11598333, "nombre": "Uno Bell Air", "id": "MGA0602"}, {"diesela": [0.0], "lon": -86.25092778, "dieselr": [27.0], "marca2": "DNP", "marca": "DNP", "direccion": "Contiguo al Hospital General de Managua.", "gasos": [34.0], "gasor": [31.13], "kerosine": [0.0], "lat": 12.11645278, "nombre": "Petronic Centroam\u00e9rica # 1", "id": "MGA0603"}, {"diesela": [0.0], "lon": -86.25459444, "dieselr": [27.15], "marca2": "DNP", "marca": "DNP", "direccion": "Rotonda Centro Am\u00e9rica 100 Metros al Este.", "gasos": [34.0], "gasor": [31.13], "kerosine": [0.0], "lat": 12.11445278, "nombre": "Petronic Centroam\u00e9rica # 2", "id": "MGA0604"}, {"diesela": [0.0], "lon": -86.24528889, "dieselr": [27.46], "marca2": "UNO", "marca": "UNO", "direccion": "Costa Oeste Mercado Roberto Huemb\u00e9s detr\u00e1s de la Terminal de Buses", "gasos": [33.2], "gasor": [0.0], "kerosine": [0.0], "lat": 12.12386389, "nombre": "Uno Mercado Roberto Huemb\u00e9s", "id": "MGA0605"}, {"diesela": [0.0], "lon": -86.25590833, "dieselr": [27.1], "marca2": "Puma", "marca": "PUM", "direccion": "Rotonda El Cristo 100 metros al Este Pista de la Resistencia.", "gasos": [33.98], "gasor": [31.16], "kerosine": [0.0], "lat": 12.13449444, "nombre": "Puma 15 de Septiembre", "id": "MGA0701"}, {"diesela": [0.0], "lon": -86.25815278, "dieselr": [27.12], "marca2": "UNO", "marca": "UNO", "direccion": "Rotonda Santo Domingo Pista de la Resistencia.", "gasos": [33.98], "gasor": [31.16], "kerosine": [0.0], "lat": 12.13276111, "nombre": "Uno Santo Domingo", "id": "MGA0702"}, {"diesela": [0.0], "lon": -86.26166667, "dieselr": [27.37], "marca2": "UNO", "marca": "UNO", "direccion": "Frente Funeraria Monte de los Olivos. Pista Cardenal Miguel Obando", "gasos": [33.98], "gasor": [31.16], "kerosine": [0.0], "lat": 12.12351389, "nombre": "Uno Los Robles", "id": "MGA0703"}, {"diesela": [27.37], "lon": -86.26212222, "dieselr": [27.12], "marca2": "UNO", "marca": "UNO", "direccion": "Frente Edificio Central de la Polic\u00eda Nacional.", "gasos": [33.98], "gasor": [0.0], "kerosine": [0.0], "lat": 12.12998333, "nombre": "Uno Plaza El Sol", "id": "MGA0704"}, {"diesela": [0.0], "lon": -86.26674444, "dieselr": [27.12], "marca2": "Puma", "marca": "PUM", "direccion": "Rotonda de Metrocentro. Costado Oeste Centro Comercial Metrocentro", "gasos": [33.98], "gasor": [31.16], "kerosine": [0.0], "lat": 12.12838611, "nombre": "Puma La Rotonda", "id": "MGA0801"}, {"diesela": [0.0], "lon": -86.26576389, "dieselr": [27.12], "marca2": "UNO", "marca": "UNO", "direccion": "Km 4 Carretera a Masaya.", "gasos": [33.38], "gasor": [31.16], "kerosine": [0.0], "lat": 12.12589167, "nombre": "Uno Lomas de Guadalupe", "id": "MGA0802"}, {"diesela": [27.37], "lon": -86.26686667, "dieselr": [27.12], "marca2": "UNO", "marca": "UNO", "direccion": "Rotonda Rub\u00e9n Dar\u00edo.", "gasos": [33.98], "gasor": [31.16], "kerosine": [0.0], "lat": 12.12955556, "nombre": "Uno Metrocentro", "id": "MGA0803"}, {"diesela": [0.0], "lon": -86.27476944, "dieselr": [27.15], "marca2": "DNP", "marca": "DNP", "direccion": "Frente al Costado Sur del Hospital Militar.", "gasos": [34.0], "gasor": [31.13], "kerosine": [0.0], "lat": 12.13575833, "nombre": "Petronic Bol\u00edvar", "id": "MGA0804"}, {"diesela": [0.0], "lon": -86.17805278, "dieselr": [27.12], "marca2": "Puma", "marca": "PUM", "direccion": "frente al Club de la Fuerza A\u00e9rea. Km 10.5 Carretera Norte", "gasos": [33.98], "gasor": [31.16], "kerosine": [0.0], "lat": 12.14662778, "nombre": "Puma Las Mercedes", "id": "MGA0901"}, {"diesela": [27.37], "lon": -86.20886389, "dieselr": [27.12], "marca2": "UNO", "marca": "UNO", "direccion": "Km 7 Carretera Norte.", "gasos": [33.98], "gasor": [31.16], "kerosine": [0.0], "lat": 12.14876111, "nombre": "Uno Kilo 7 Norte", "id": "MGA0902"}, {"diesela": [0.0], "lon": -86.19108056, "dieselr": [27.15], "marca2": "UNO", "marca": "UNO", "direccion": "Km 8 Carretera Norte.", "gasos": [34.0], "gasor": [31.13], "kerosine": [27.32], "lat": 12.14686944, "nombre": "Uno La Subasta", "id": "MGA0903"}, {"diesela": [0.0], "lon": -86.19864722, "dieselr": [27.12], "marca2": "UNO", "marca": "UNO", "direccion": "Sem\u00e1foros del Mercado El Mayoreo", "gasos": [33.98], "gasor": [0.0], "kerosine": [0.0], "lat": 12.13343611, "nombre": "Uno Mayoreo", "id": "MGA0904"}, {"diesela": [27.37], "lon": -86.17394167, "dieselr": [27.12], "marca2": "UNO", "marca": "UNO", "direccion": "Frente al Aeropuerto Internacional A.C. Sandino", "gasos": [33.98], "gasor": [31.16], "kerosine": [0.0], "lat": 12.14605833, "nombre": "Uno Las Mercedes", "id": "MGA0905"}, {"diesela": [0.0], "lon": -86.18744444, "dieselr": [27.15], "marca2": "DNP", "marca": "DNP", "direccion": "Km 10.5 Carretera Norte.", "gasos": [34.0], "gasor": [31.13], "kerosine": [0.0], "lat": 12.14671389, "nombre": "Petronic Las Mercedes", "id": "MGA0906"}, {"diesela": [0.0], "lon": -86.284025, "dieselr": [27.12], "marca2": "Puma", "marca": "PUM", "direccion": "Rotonda El Periodista. Sobre la Pista de la Resistencia.", "gasos": [33.98], "gasor": [31.16], "kerosine": [0.0], "lat": 12.12603056, "nombre": "Puma Country", "id": "MGA1001"}, {"diesela": [27.37], "lon": -86.28246111, "dieselr": [27.12], "marca2": "UNO", "marca": "UNO", "direccion": "Contiguo al Hotel Holiday Rotonda El Periodista", "gasos": [33.98], "gasor": [31.16], "kerosine": [0.0], "lat": 12.12478611, "nombre": "Uno El Periodista", "id": "MGA1002"}, {"diesela": [27.37], "lon": -86.29025, "dieselr": [27.12], "marca2": "UNO", "marca": "UNO", "direccion": "Frente a Edificio Julio Mart\u00ednez.", "gasos": [33.98], "gasor": [31.16], "kerosine": [0.0], "lat": 12.12623889, "nombre": "Uno Motastepe", "id": "MGA1003"}, {"diesela": [27.37], "lon": -86.33853333, "dieselr": [27.12], "marca2": "UNO", "marca": "UNO", "direccion": "Contiguo a COLGATE Carretera Xilo\u00e1.", "gasos": [33.98], "gasor": [31.16], "kerosine": [0.0], "lat": 12.15947222, "nombre": "Uno Ciudad Sandino", "id": "MGA1101"}, {"diesela": [0.0], "lon": -86.34705278, "dieselr": [27.44], "marca2": "UNO", "marca": "UNO", "direccion": "Km 13.5 Carretera Nueva a Le\u00f3n.", "gasos": [33.77], "gasor": [31.08], "kerosine": [0.0], "lat": 12.17322778, "nombre": "Uno Xilo\u00e1", "id": "MGA1102"}, {"diesela": [0.0], "lon": -86.27318611, "dieselr": [27.12], "marca2": "Puma", "marca": "PUM", "direccion": "Rotonda Universitaria.", "gasos": [33.98], "gasor": [31.16], "kerosine": [0.0], "lat": 12.11381667, "nombre": "Puma Americano", "id": "MGA1201"}, {"diesela": [27.37], "lon": -86.26066389, "dieselr": [27.12], "marca2": "UNO", "marca": "UNO", "direccion": "Sem\u00e1foros de Enitel Villa Fontana 100 metros al Norte.", "gasos": [33.98], "gasor": [31.16], "kerosine": [0.0], "lat": 12.11289444, "nombre": "Uno Fontana", "id": "MGA1202"}, {"diesela": [0.0], "lon": -86.2657, "dieselr": [27.15], "marca2": "DNP", "marca": "DNP", "direccion": "Esquina Opuesta a Edificio Central de Enitel Villa Fontana.", "gasos": [34.0], "gasor": [31.13], "kerosine": [0.0], "lat": 12.11296944, "nombre": "Petronic Villa Fontana", "id": "MGA1203"}, {"diesela": [0.0], "lon": -86.05438333, "dieselr": [0.0], "marca2": "UNO", "marca": "UNO", "direccion": "Empalme San Benito Km 46 Carretera Panamericana Norte.", "gasos": [0.0], "gasor": [0.0], "kerosine": [0.0], "lat": 12.30857778, "nombre": "Uno San Benito 2", "id": "MGA1301"}, {"diesela": [0.0], "lon": -86.09628889, "dieselr": [27.15], "marca2": "UNO", "marca": "UNO", "direccion": "Mercado Municipal 2C al Norte", "gasos": [34.0], "gasor": [31.13], "kerosine": [0.0], "lat": 12.20035833, "nombre": "Uno Tipitapa/Pakistan", "id": "MGA1302"}, {"diesela": [27.4], "lon": -86.10044444, "dieselr": [27.16], "marca2": "UNO", "marca": "UNO", "direccion": "Km 22 Carretera Panamericana Norte.", "gasos": [34.0], "gasor": [31.13], "kerosine": [0.0], "lat": 12.20731389, "nombre": "Uno Internacional", "id": "MGA1303"}, {"diesela": [0.0], "lon": -86.10403056, "dieselr": [27.15], "marca2": "DNP", "marca": "DNP", "direccion": "Km 27 Carretera Panamerica Norte", "gasos": [34.0], "gasor": [31.13], "kerosine": [0.0], "lat": 12.19527222, "nombre": "Petronic Tipitapa \"Full Service\"", "id": "MGA1304"}, {"diesela": [0.0], "lon": -86.27518333, "dieselr": [27.12], "marca2": "Puma", "marca": "PUM", "direccion": "Costado Oeste Centro Comercial Plaza Inter.", "gasos": [33.98], "gasor": [31.16], "kerosine": [0.0], "lat": 12.14509167, "nombre": "Puma Las Margaritas", "id": "MGA1401"}, {"diesela": [0.0], "lon": -86.28787222, "dieselr": [27.12], "marca2": "UNO", "marca": "UNO", "direccion": "Frente de donde fue Delicias del Volga. Calle 15 de Septiembre.", "gasos": [33.98], "gasor": [31.16], "kerosine": [0.0], "lat": 12.15200278, "nombre": "Uno Delicias del Volga", "id": "MGA1402"}, {"diesela": [0.0], "lon": -86.28437222, "dieselr": [27.12], "marca2": "UNO", "marca": "UNO", "direccion": "Frente a la Iglesia El Carmen", "gasos": [33.98], "gasor": [0.0], "kerosine": [0.0], "lat": 12.14753056, "nombre": "Uno El Carmen", "id": "MGA1403"}, {"diesela": [27.37], "lon": -86.282675, "dieselr": [27.12], "marca2": "UNO", "marca": "UNO", "direccion": "Frente a la Casa del Obrero Calle Colon.", "gasos": [33.98], "gasor": [31.16], "kerosine": [0.0], "lat": 12.14660833, "nombre": "Uno Modelo", "id": "MGA1404"}, {"diesela": [27.38], "lon": -86.28148889, "dieselr": [27.12], "marca2": "UNO", "marca": "UNO", "direccion": "Casa del Obrero 1C al Sur 1C al Este Calle 27 de Mayo", "gasos": [33.98], "gasor": [31.16], "kerosine": [0.0], "lat": 12.14548611, "nombre": "Uno 27 de Mayo", "id": "MGA1406"}, {"diesela": [0.0], "lon": -86.28151667, "dieselr": [27.67], "marca2": "Independiente", "marca": "IND", "direccion": "Casa del Obrero 1C. Al Este.", "gasos": [33.32], "gasor": [0.0], "kerosine": [0.0], "lat": 12.14658333, "nombre": "Independiente Fenicootaxi", "id": "MGA1407"}, {"diesela": [0.0], "lon": -86.42718056, "dieselr": [0.0], "marca2": "UNO", "marca": "UNO", "direccion": "San Rafael del Sur.", "gasos": [0.0], "gasor": [0.0], "kerosine": [0.0], "lat": 11.85419444, "nombre": "Uno Estrella del Sur", "id": "MGA1501"}, {"diesela": [0.0], "lon": -86.51536111, "dieselr": [0.0], "marca2": "DNP", "marca": "DNP", "direccion": "Entrada a Masachapa Carretera a Pochomil", "gasos": [0.0], "gasor": [0.0], "kerosine": [0.0], "lat": 11.78071111, "nombre": "Petronic Masachapa", "id": "MGA1502"}, {"diesela": [0.0], "lon": -86.43900833, "dieselr": [0.0], "marca2": "DNP", "marca": "DNP", "direccion": "Km 48.5 Carretera a Masachapa", "gasos": [0.0], "gasor": [0.0], "kerosine": [0.0], "lat": 11.84834167, "nombre": "Petronic Reyna del Sur", "id": "MGA1503"}, {"diesela": [0.0], "lon": -86.25829444, "dieselr": [27.12], "marca2": "UNO", "marca": "UNO", "direccion": "Km 2 Carretera Norte. Frente a SubEstaci\u00f3n El\u00e9ctrica Planta Managua.", "gasos": [33.98], "gasor": [31.16], "kerosine": [0.0], "lat": 12.15318056, "nombre": "Uno Momotombo", "id": "MGA1601"}, {"diesela": [0.0], "lon": -86.23045278, "dieselr": [27.12], "marca2": "UNO", "marca": "UNO", "direccion": "Carret Norte Km 4 1/2 Ent a Santa Clara", "gasos": [33.98], "gasor": [31.16], "kerosine": [0.0], "lat": 12.15139444, "nombre": "Uno Santa Clara", "id": "MGA1602"}, {"diesela": [0.0], "lon": -86.25237222, "dieselr": [27.12], "marca2": "UNO", "marca": "UNO", "direccion": "Contiguo a Parmalat Km 4.5 Carretera Norte", "gasos": [33.98], "gasor": [31.16], "kerosine": [0.0], "lat": 12.15334167, "nombre": "Uno Kennedy", "id": "MGA1603"}, {"diesela": [0.0], "lon": -86.24942222, "dieselr": [27.12], "marca2": "UNO", "marca": "UNO", "direccion": "Km 2 Carretera Norte.", "gasos": [33.98], "gasor": [31.16], "kerosine": [0.0], "lat": 12.15036944, "nombre": "Uno Xolotl\u00e1n 1", "id": "MGA1604"}, {"diesela": [0.0], "lon": -86.17807222, "dieselr": [27.12], "marca2": "UNO", "marca": "UNO", "direccion": "De Donde Fue La Pepsi Cola\u00a02c Al Sur", "gasos": [33.98], "gasor": [31.16], "kerosine": [26.07], "lat": 12.14646389, "nombre": "Uno Xolotl\u00e1n 2", "id": "MGA1605"}, {"diesela": [0.0], "lon": -86.25384722, "dieselr": [27.12], "marca2": "Puma", "marca": "PUM", "direccion": "Frente al Banpro Ciudad Jard\u00edn", "gasos": [33.98], "gasor": [31.16], "kerosine": [0.0], "lat": 12.14587778, "nombre": "Puma El Porvenir", "id": "MGA1701"}, {"diesela": [27.37], "lon": -86.26053889, "dieselr": [27.12], "marca2": "UNO", "marca": "UNO", "direccion": "Frente la Estaci\u00f3n de Polic\u00eda Enrique Smith", "gasos": [33.98], "gasor": [31.16], "kerosine": [0.0], "lat": 12.14476389, "nombre": "Uno Gancho de Camino", "id": "MGA1702"}, {"diesela": [27.93], "lon": -86.25340278, "dieselr": [27.68], "marca2": "UNO", "marca": "UNO", "direccion": "Frente a Supermercado La Colonia Ciudad Jard\u00edn.", "gasos": [33.97], "gasor": [31.17], "kerosine": [0.0], "lat": 12.14508056, "nombre": "Uno Ciudad Jard\u00edn", "id": "MGA1703"}, {"diesela": [0.0], "lon": -86.26841111, "dieselr": [27.0], "marca2": "DNP", "marca": "DNP", "direccion": "Colegio Bautista 2 C. al Norte. Barrio Santo Domingo", "gasos": [34.0], "gasor": [31.13], "kerosine": [0.0], "lat": 12.15064722, "nombre": "Petronic Mercoagro", "id": "MGA1704"}, {"diesela": [0.0], "lon": -86.25193611, "dieselr": [27.12], "marca2": "Puma", "marca": "PUM", "direccion": "Km 6.5 Carretera a Masaya Camino a Las Sierritas.", "gasos": [33.98], "gasor": [31.16], "kerosine": [0.0], "lat": 12.10899722, "nombre": "Puma Santo Domingo", "id": "MGA1801"}, {"diesela": [0.0], "lon": -86.24038889, "dieselr": [27.12], "marca2": "Puma", "marca": "PUM", "direccion": "Km 8 Carretera a Masaya.", "gasos": [33.98], "gasor": [31.16], "kerosine": [0.0], "lat": 12.09769444, "nombre": "Puma Las Colinas", "id": "MGA1802"}, {"diesela": [27.4], "lon": -86.22721111, "dieselr": [27.15], "marca2": "UNO", "marca": "UNO", "direccion": "Km 10.5 Carretera a Masaya Entrada a la UNICA.", "gasos": [34.0], "gasor": [31.13], "kerosine": [0.0], "lat": 12.08178889, "nombre": "Uno La Quinta", "id": "MGA1803"}, {"diesela": [27.38], "lon": -86.19481389, "dieselr": [27.12], "marca2": "UNO", "marca": "UNO", "direccion": "Km 15.5 Carretera a Masaya.", "gasos": [33.98], "gasor": [31.16], "kerosine": [0.0], "lat": 12.04704167, "nombre": "Uno San Donato", "id": "MGA1804"}, {"diesela": [0.0], "lon": -86.24092222, "dieselr": [27.12], "marca2": "UNO", "marca": "UNO", "direccion": "Primer Entrada a Las Colinas Km 8 Carretera a Masaya.", "gasos": [33.98], "gasor": [31.16], "kerosine": [0.0], "lat": 12.09822778, "nombre": "Uno Las Colinas", "id": "MGA1805"}, {"diesela": [0.0], "lon": -86.20279167, "dieselr": [27.52], "marca2": "UNO", "marca": "UNO", "direccion": "Km 16.5 Carretera a Ticuantepe.", "gasos": [34.36], "gasor": [0.0], "kerosine": [0.0], "lat": 12.04271111, "nombre": "Uno Ticons\u00e1n", "id": "MGA1806"}, {"diesela": [0.0], "lon": -86.23201389, "dieselr": [27.15], "marca2": "UNO", "marca": "UNO", "direccion": "Km 9.7 Carretera a Masaya.", "gasos": [34.0], "gasor": [31.13], "kerosine": [0.0], "lat": 12.08675, "nombre": "Uno Universitaria", "id": "MGA1807"}, {"diesela": [27.4], "lon": -86.24745833, "dieselr": [27.15], "marca2": "UNO", "marca": "UNO", "direccion": "Centro Comercial Galer\u00edas Km 7 Carretera a Masaya.", "gasos": [34.0], "gasor": [31.13], "kerosine": [0.0], "lat": 12.10383611, "nombre": "Uno Galer\u00eda", "id": "MGA1808"}, {"diesela": [0.0], "lon": -86.2342, "dieselr": [27.15], "marca2": "DNP", "marca": "DNP", "direccion": "Km.9.5 Carretera a Masaya", "gasos": [34.0], "gasor": [31.13], "kerosine": [0.0], "lat": 12.08959167, "nombre": "Petronic Las Colinas", "id": "MGA1809"}, {"diesela": [0.0], "lon": -86.13812778, "dieselr": [0.0], "marca2": "DNP", "marca": "DNP", "direccion": "Frente a la Alcald\u00eda Municipal El J\u00edcaro", "gasos": [0.0], "gasor": [0.0], "kerosine": [0.0], "lat": 13.72236389, "nombre": "Petronic El J\u00edcaro", "id": "NSE0101"}, {"diesela": [0.0], "lon": -86.1294, "dieselr": [0.0], "marca2": "DNP", "marca": "DNP", "direccion": "Entrada a la Ciudad de Jalapa", "gasos": [0.0], "gasor": [0.0], "kerosine": [0.0], "lat": 13.91403333, "nombre": "Petronic Jalapa", "id": "NSE0201"}, {"diesela": [0.0], "lon": -86.12970278, "dieselr": [0.0], "marca2": "Independiente", "marca": "IND", "direccion": "Frente a la Alcald\u00eda Municipal El J\u00edcaro", "gasos": [0.0], "gasor": [0.0], "kerosine": [0.0], "lat": 13.91133889, "nombre": "Independiente Agroservice Jalapa", "id": "NSE0202"}, {"diesela": [0.0], "lon": -86.47354444, "dieselr": [28.8], "marca2": "DNP", "marca": "DNP", "direccion": "Salida Sur hacia Managua Km. 224", "gasos": [35.53], "gasor": [0.0], "kerosine": [0.0], "lat": 13.61412222, "nombre": "Petronic Ocotal", "id": "NSE0301"}, {"diesela": [0.0], "lon": -86.47783333, "dieselr": [28.8], "marca2": "Puma", "marca": "PUM", "direccion": "", "gasos": [35.47], "gasor": [34.78], "kerosine": [0.0], "lat": 13.62608611, "nombre": "PUMA Ocotal", "id": "NSE0302"}, {"diesela": [0.0], "lon": -86.47934722, "dieselr": [28.8], "marca2": "Independiente", "marca": "IND", "direccion": "", "gasos": [35.47], "gasor": [0.0], "kerosine": [0.0], "lat": 13.63176667, "nombre": "Independiente Servicentro  Las Segovias", "id": "NSE0303"}, {"diesela": [0.0], "lon": -86.02383611, "dieselr": [0.0], "marca2": "DNP", "marca": "DNP", "direccion": "Ciudad de Quilal\u00ed Quilal\u00ed", "gasos": [0.0], "gasor": [0.0], "kerosine": [0.0], "lat": 13.56651111, "nombre": "Petronic Quilal\u00ed", "id": "NSE0401"}, {"diesela": [0.0], "lon": -86.31028333, "dieselr": [0.0], "marca2": "DNP", "marca": "DNP", "direccion": "Salida Norte San Fernando Nueva Segovia", "gasos": [0.0], "gasor": [0.0], "kerosine": [0.0], "lat": 13.679275, "nombre": "Petronic San Fernando (Nueva Segovia)", "id": "NSE0501"}, {"diesela": [0.0], "lon": -83.3788972, "dieselr": [0.0], "marca2": "DNP", "marca": "DNP", "direccion": "Oficina del Aeropuerto 100 mts al sur Bilwi", "gasos": [0.0], "gasor": [0.0], "kerosine": [0.0], "lat": 14.0406167, "nombre": "Petronic Manat\u00ed", "id": "RAN0101"}, {"diesela": [0.0], "lon": -83.3899194, "dieselr": [0.0], "marca2": "DNP", "marca": "DNP", "direccion": "Bo. Spanish Town Bilwi", "gasos": [0.0], "gasor": [0.0], "kerosine": [0.0], "lat": 14.0295056, "nombre": "Petronic Pinares (Bilwi)", "id": "RAN0102"}, {"diesela": [0.0], "lon": -83.9754778, "dieselr": [0.0], "marca2": "DNP", "marca": "DNP", "direccion": "Rio Coco Waspan.", "gasos": [0.0], "gasor": [0.0], "kerosine": [0.0], "lat": 14.7406722, "nombre": "Petronic El Mirador Waspan", "id": "RAN0201"}, {"diesela": [0.0], "lon": -83.9829, "dieselr": [0.0], "marca2": "DNP", "marca": "DNP", "direccion": "Ciudad de Waspan.", "gasos": [0.0], "gasor": [0.0], "kerosine": [0.0], "lat": 14.7364333, "nombre": "Petronic R\u00edo Coco Waspan", "id": "RAN0202"}, {"diesela": [0.0], "lon": -84.3958556, "dieselr": [0.0], "marca2": "DNP", "marca": "DNP", "direccion": "Del Aeropuerto 100 Mts al Este.", "gasos": [0.0], "gasor": [0.0], "kerosine": [0.0], "lat": 13.8969722, "nombre": "Petronic Rosita", "id": "RAN0301"}, {"diesela": [0.0], "lon": -83.0662056, "dieselr": [0.0], "marca2": "DNP", "marca": "DNP", "direccion": "Contiguo al plantel Petronic.", "gasos": [0.0], "gasor": [0.0], "kerosine": [0.0], "lat": 12.1636278, "nombre": "Petronic Corn Island \"El Isle\u00f1o\"", "id": "RAS0101"}, {"diesela": [0.0], "lon": -83.7601694, "dieselr": [0.0], "marca2": "DNP", "marca": "DNP", "direccion": "Contiguo al Hotel South Atlantic II Bluefields", "gasos": [0.0], "gasor": [0.0], "kerosine": [0.0], "lat": 12.0121361, "nombre": "Petronic Laguna I (Terrestre)", "id": "RAS0201"}, {"diesela": [0.0], "lon": -83.7670111, "dieselr": [0.0], "marca2": "DNP", "marca": "DNP", "direccion": "Barrio Santa Rosa Bluefields", "gasos": [0.0], "gasor": [0.0], "kerosine": [0.0], "lat": 12.004975, "nombre": "Petronic Laguna II (Terrestre)", "id": "RAS0202"}, {"diesela": [0.0], "lon": -83.7578389, "dieselr": [0.0], "marca2": "DNP", "marca": "DNP", "direccion": "Bo. Point Tin Bluefields", "gasos": [0.0], "gasor": [0.0], "kerosine": [0.0], "lat": 12.0155472, "nombre": "Petronic Laguna III (Acu\u00e1tica)", "id": "RAS0203"}, {"diesela": [0.0], "lon": -84.21696667, "dieselr": [0.0], "marca2": "Puma", "marca": "PUM", "direccion": "Esquina Opuesta al Parq Uriel Rivera", "gasos": [0.0], "gasor": [0.0], "kerosine": [0.0], "lat": 12.16080833, "nombre": "Puma El Rama", "id": "RAS0301"}, {"diesela": [0.0], "lon": -84.21992222, "dieselr": [0.0], "marca2": "Independiente", "marca": "IND", "direccion": "Frente al aserr\u00edo MATSA, Km 291 Carretera Managua - El Rama.", "gasos": [0.0], "gasor": [0.0], "kerosine": [0.0], "lat": 12.15930278, "nombre": "Independiente Eveneser.com", "id": "RAS0302"}, {"diesela": [0.0], "lon": -84.45898889, "dieselr": [0.0], "marca2": "DNP", "marca": "DNP", "direccion": "Segunda Entrada a Nueva Guinea 5 cuadras al Sur.", "gasos": [0.0], "gasor": [0.0], "kerosine": [0.0], "lat": 11.68708333, "nombre": "Petronic Nueva Guinea", "id": "RAS0401"}, {"diesela": [0.0], "lon": -84.4587583, "dieselr": [0.0], "marca2": "Independiente", "marca": "IND", "direccion": "Segunda Entrada a Nueva Guinea 5 cuadras al Sur.", "gasos": [0.0], "gasor": [0.0], "kerosine": [0.0], "lat": 11.6886306, "nombre": "Independiente Cootraprica", "id": "RAS0402"}, {"diesela": [0.0], "lon": -85.69927222, "dieselr": [0.0], "marca2": "DNP", "marca": "DNP", "direccion": "Del Hospital de Moyogalpa 800 metros al Sur.", "gasos": [0.0], "gasor": [0.0], "kerosine": [0.0], "lat": 11.54066111, "nombre": "Petronic Ometepe", "id": "RIV0101"}, {"diesela": [28.0], "lon": -85.82666944, "dieselr": [27.75], "marca2": "UNO", "marca": "UNO", "direccion": "Rotonda Entrada a Rivas, Carretera Panamericana.", "gasos": [35.01], "gasor": [32.24], "kerosine": [0.0], "lat": 11.44438889, "nombre": "Uno La Concha", "id": "RIV0201"}, {"diesela": [0.0], "lon": -85.82725556, "dieselr": [27.75], "marca2": "Puma", "marca": "PUM", "direccion": "Km 112 Carretera Panamericana. Entrada a Rivas.", "gasos": [35.01], "gasor": [32.24], "kerosine": [0.0], "lat": 11.44486389, "nombre": "Puma Santa Ana", "id": "RIV0202"}, {"diesela": [0.0], "lon": -85.82493333, "dieselr": [27.75], "marca2": "UNO", "marca": "UNO", "direccion": "Km 113 Carretera panamerica Sur.", "gasos": [35.01], "gasor": [32.24], "kerosine": [0.0], "lat": 11.44229722, "nombre": "Uno Rivas", "id": "RIV0203"}, {"diesela": [0.0], "lon": -85.83240833, "dieselr": [27.74], "marca2": "DNP", "marca": "DNP", "direccion": "En el Mercado Central de Rivas.", "gasos": [35.06], "gasor": [32.2], "kerosine": [0.0], "lat": 11.44170556, "nombre": "Petronic Rivas", "id": "RIV0204"}, {"diesela": [0.0], "lon": -85.86951389, "dieselr": [27.75], "marca2": "UNO", "marca": "UNO", "direccion": "Entrada a San Juan del Sur.", "gasos": [0.0], "gasor": [32.24], "kerosine": [0.0], "lat": 11.25610556, "nombre": "Uno San Juan del Sur", "id": "RIV0304"}, {"diesela": [0.0], "lon": -84.77914167, "dieselr": [0.0], "marca2": "DNP", "marca": "DNP", "direccion": "Contiguo a ENAP, San Carlos.", "gasos": [0.0], "gasor": [0.0], "kerosine": [0.0], "lat": 11.122025, "nombre": "Petronic San Carlos", "id": "RSJ0101"}, {"diesela": [0.0], "lon": -84.7781389, "dieselr": [0.0], "marca2": "Independiente", "marca": "IND", "direccion": "Entrada a  San Carlos\u00a0", "gasos": [0.0], "gasor": [0.0], "kerosine": [0.0], "lat": 11.1247444, "nombre": "Independiente San Carlos", "id": "RSJ0102"}, {"diesela": [0.0], "lon": -85.65767222, "dieselr": [0.0], "marca2": "UNO", "marca": "UNO", "direccion": "Entrada a Boaco", "gasos": [0.0], "gasor": [0.0], "kerosine": [0.0], "lat": 12.47174444, "nombre": "Uno Boaco Chatisa", "id": "BCO0101"}, {"diesela": [0.0], "lon": -85.74814167, "dieselr": [0.0], "marca2": "Independiente", "marca": "IND", "direccion": "Empalme de Boaco", "gasos": [0.0], "gasor": [0.0], "kerosine": [0.0], "lat": 12.41491667, "nombre": "Independiente Empalme de Boaco", "id": "BCO0102"}, {"diesela": [0.0], "lon": -85.66218333, "dieselr": [0.0], "marca2": "UNO", "marca": "UNO", "direccion": "Entrada a Boaco", "gasos": [0.0], "gasor": [0.0], "kerosine": [0.0], "lat": 12.46554722, "nombre": "Uno Nueva Boaco 2000", "id": "BCO0103"}, {"diesela": [0.0], "lon": -85.65824444, "dieselr": [0.0], "marca2": "DNP", "marca": "DNP", "direccion": "Centro de la Ciudad", "gasos": [0.0], "gasor": [0.0], "kerosine": [0.0], "lat": 12.46994167, "nombre": "Petronic Boaco", "id": "BCO0104"}, {"diesela": [0.0], "lon": -85.50222222, "dieselr": [0.0], "marca2": "UNO", "marca": "UNO", "direccion": "Estadio Municipal 3C al Este", "gasos": [0.0], "gasor": [0.0], "kerosine": [0.0], "lat": 12.38515278, "nombre": "Uno Camoapa", "id": "BCO0205"}, {"diesela": [0.0], "lon": -85.64294722, "dieselr": [0.0], "marca2": "DNP", "marca": "DNP", "direccion": "Km 101 Carretera a Juigalpa", "gasos": [0.0], "gasor": [0.0], "kerosine": [0.0], "lat": 12.25640833, "nombre": "Petronic Tecolostote", "id": "BCO0306"}, {"diesela": [28.26], "lon": -87.02359167, "dieselr": [27.93], "marca2": "UNO", "marca": "UNO", "direccion": "Entrada a Chichigalpa", "gasos": [34.52], "gasor": [31.61], "kerosine": [0.0], "lat": 12.59166944, "nombre": "Uno Chichigalpa", "id": "CHI0101"}, {"diesela": [0.0], "lon": -87.02640556, "dieselr": [27.93], "marca2": "UNO", "marca": "UNO", "direccion": "Bo Mercedes Mcdo Municipal 1C al Oeste", "gasos": [34.51], "gasor": [31.61], "kerosine": [0.0], "lat": 12.57566389, "nombre": "Uno San Martin", "id": "CHI0102"}, {"diesela": [0.0], "lon": -87.02634722, "dieselr": [28.46], "marca2": "DNP", "marca": "DNP", "direccion": "Frente al Colegio Francisca Gonzalez.", "gasos": [34.56], "gasor": [0.0], "kerosine": [0.0], "lat": 12.57773056, "nombre": "Petronic Chichigalpa", "id": "CHI0103"}, {"diesela": [0.0], "lon": -87.12507222, "dieselr": [27.93], "marca2": "Puma", "marca": "PUM", "direccion": "Contiguo a GEMINA", "gasos": [34.52], "gasor": [0.0], "kerosine": [0.0], "lat": 12.62509444, "nombre": "Puma Terminal", "id": "CHI0201"}, {"diesela": [0.0], "lon": -87.12819444, "dieselr": [27.93], "marca2": "Puma", "marca": "PUM", "direccion": "De la Iglesia El Calvario 1C al Sur.", "gasos": [34.52], "gasor": [31.6], "kerosine": [0.0], "lat": 12.63013333, "nombre": "Puma Central", "id": "CHI0202"}, {"diesela": [28.18], "lon": -87.13211944, "dieselr": [27.93], "marca2": "UNO", "marca": "UNO", "direccion": "Esquina de los Bancos", "gasos": [34.52], "gasor": [31.6], "kerosine": [0.0], "lat": 12.63079722, "nombre": "Uno Chinandega", "id": "CHI0203"}, {"diesela": [28.18], "lon": -87.12681389, "dieselr": [27.93], "marca2": "UNO", "marca": "UNO", "direccion": "Salida Chinandega Somotillo", "gasos": [34.52], "gasor": [0.0], "kerosine": [0.0], "lat": 12.64684444, "nombre": "Uno Norte", "id": "CHI0204"}, {"diesela": [28.19], "lon": -87.13272222, "dieselr": [27.93], "marca2": "UNO", "marca": "UNO", "direccion": "Atr\u00e1s de la Basilica de Guadalupe", "gasos": [34.52], "gasor": [31.61], "kerosine": [0.0], "lat": 12.62611389, "nombre": "Uno Sur", "id": "CHI0205"}, {"diesela": [0.0], "lon": -87.12052222, "dieselr": [27.93], "marca2": "UNO", "marca": "UNO", "direccion": "Entrada a Chinandega,  Rotonda Los Encuentros", "gasos": [34.52], "gasor": [31.6], "kerosine": [0.0], "lat": 12.62380833, "nombre": "Uno Los Encuentros", "id": "CHI0206"}, {"diesela": [0.0], "lon": -87.12010556, "dieselr": [27.96], "marca2": "DNP", "marca": "DNP", "direccion": "Rotonda Los Encuentros. Km 132 Carretera a Corinto", "gasos": [34.56], "gasor": [31.63], "kerosine": [0.0], "lat": 12.62231389, "nombre": "Petronic Chinandega", "id": "CHI0207"}, {"diesela": [0.0], "lon": -87.13405833, "dieselr": [27.96], "marca2": "DNP", "marca": "DNP", "direccion": "Esquina opuesta a la Iglesia Cataloica Santa Ana.", "gasos": [0.0], "gasor": [0.0], "kerosine": [0.0], "lat": 12.63183611, "nombre": "Petronic Sta. Ana Chinandega", "id": "CHI0208"}, {"diesela": [0.0], "lon": -87.12779167, "dieselr": [28.49], "marca2": "DNP", "marca": "DNP", "direccion": "", "gasos": [34.52], "gasor": [0.0], "kerosine": [0.0], "lat": 12.63986667, "nombre": "Petronic Panamericana", "id": "CHI0209"}, {"diesela": [0.0], "lon": -87.134125, "dieselr": [27.96], "marca2": "DNP", "marca": "DNP", "direccion": "Chinandega", "gasos": [34.56], "gasor": [31.63], "kerosine": [0.0], "lat": 12.6315694, "nombre": "DNP/PETRONIC", "id": "CHI0210"}, {"diesela": [0.0], "lon": -87.19893333, "dieselr": [28.0], "marca2": "DNP", "marca": "DNP", "direccion": "Salida al desvio de PasoCaballos", "gasos": [34.52], "gasor": [0.0], "kerosine": [0.0], "lat": 12.51426389, "nombre": "Petronic Corinto \"Casta\u00f1ones\"", "id": "CHI0301"}, {"diesela": [0.0], "lon": -87.16691667, "dieselr": [28.5], "marca2": "UNO", "marca": "UNO", "direccion": "Contiguo a Basilica Inmaculada Concepci\u00f3n", "gasos": [34.5], "gasor": [31.65], "kerosine": [0.0], "lat": 12.66168333, "nombre": "Uno El viejo", "id": "CHI0401"}, {"diesela": [0.0], "lon": -87.16024444, "dieselr": [28.49], "marca2": "UNO", "marca": "UNO", "direccion": "Entrada al Municipio de El Viejo.", "gasos": [34.51], "gasor": [31.71], "kerosine": [0.0], "lat": 12.65370556, "nombre": "Uno CADEV", "id": "CHI0402"}, {"diesela": [0.0], "lon": -87.16684167, "dieselr": [28.0], "marca2": "DNP", "marca": "DNP", "direccion": "Iglesia Basilica 2C. al Sur", "gasos": [34.56], "gasor": [31.65], "kerosine": [0.0], "lat": 12.65877222, "nombre": "Petronic El Viejo", "id": "CHI0403"}, {"diesela": [0.0], "lon": -86.89856389, "dieselr": [0.0], "marca2": "UNO", "marca": "UNO", "direccion": "Somotillo", "gasos": [0.0], "gasor": [0.0], "kerosine": [0.0], "lat": 13.03299167, "nombre": "Uno Somotillo", "id": "CHI0501"}, {"diesela": [0.0], "lon": -86.84439167, "dieselr": [0.0], "marca2": "DNP", "marca": "DNP", "direccion": "Entrada Principal a Villa Nueva.", "gasos": [0.0], "gasor": [0.0], "kerosine": [0.0], "lat": 12.95259444, "nombre": "Petronic Villa Nueva", "id": "CHI0601"}, {"diesela": [0.0], "lon": -85.16716667, "dieselr": [0.0], "marca2": "DNP", "marca": "DNP", "direccion": "Entrada a la Ciudad de Acoyapa", "gasos": [0.0], "gasor": [0.0], "kerosine": [0.0], "lat": 11.9685, "nombre": "Petronic Acoyapa", "id": "CHO0101"}, {"diesela": [0.0], "lon": -85.36922222, "dieselr": [29.2], "marca2": "Puma", "marca": "PUM", "direccion": "Esquina opuesta a Cooperativa Rogelio Sandoval", "gasos": [33.98], "gasor": [0.0], "kerosine": [0.0], "lat": 12.10635278, "nombre": "Puma Juigalpa", "id": "CHO0201"}, {"diesela": [29.55], "lon": -85.36998611, "dieselr": [29.05], "marca2": "UNO", "marca": "UNO", "direccion": "Radio Centro 1/2c Al Sur,   Juigalpa\n  Chontales", "gasos": [34.23], "gasor": [32.05], "kerosine": [0.0], "lat": 12.10765556, "nombre": "Uno Asunci\u00f3n", "id": "CHO0202"}, {"diesela": [0.0], "lon": -85.37156667, "dieselr": [0.0], "marca2": "DNP", "marca": "DNP", "direccion": "Entrada a la Ciudad de Juigalpa", "gasos": [0.0], "gasor": [0.0], "kerosine": [0.0], "lat": 12.11117778, "nombre": "Petronic Juigalpa 1", "id": "CHO0203"}, {"diesela": [0.0], "lon": -85.35359444, "dieselr": [28.95], "marca2": "DNP", "marca": "DNP", "direccion": "Salida hacia Acoyapa.", "gasos": [33.95], "gasor": [0.0], "kerosine": [0.0], "lat": 12.09386111, "nombre": "Petronic Juigalpa 2", "id": "CHO0204"}, {"diesela": [0.0], "lon": -85.3675167, "dieselr": [28.65], "marca2": "Independiente", "marca": "IND", "direccion": " Juigalpa", "gasos": [33.82], "gasor": [0.0], "kerosine": [0.0], "lat": 12.1048444, "nombre": "Lubricentro Alvarez", "id": "CHO0205"}, {"diesela": [0.0], "lon": -84.7604, "dieselr": [0.0], "marca2": "DNP", "marca": "DNP", "direccion": "Km 224 Carretera al Rama", "gasos": [0.0], "gasor": [0.0], "kerosine": [0.0], "lat": 11.99382222, "nombre": "Petronic La Gateada", "id": "CHO0301"}, {"diesela": [0.0], "lon": -85.10366111, "dieselr": [0.0], "marca2": "DNP", "marca": "DNP", "direccion": "Entrada a Santo Tomas.", "gasos": [0.0], "gasor": [0.0], "kerosine": [0.0], "lat": 12.06656944, "nombre": "Petronic Santo Tomas", "id": "CHO0401"}, {"diesela": [0.0], "lon": -85.09667778, "dieselr": [0.0], "marca2": "Independiente", "marca": "IND", "direccion": "KM 178 1/2 Carretera a El Rama.", "gasos": [0.0], "gasor": [0.0], "kerosine": [0.0], "lat": 12.06990833, "nombre": "Independiente Servicem", "id": "CHO0402"}, {"diesela": [0.0], "lon": -85.09190833, "dieselr": [0.0], "marca2": "Independiente", "marca": "IND", "direccion": "Frente al Restaurante La Herradura.", "gasos": [0.0], "gasor": [0.0], "kerosine": [0.0], "lat": 12.06744722, "nombre": "Independiente Santo Tomas", "id": "CHO0403"}, {"diesela": [0.0], "lon": -86.23948611, "dieselr": [27.24], "marca2": "Puma", "marca": "PUM", "direccion": "Contigua a Colonia La Inmaculada", "gasos": [34.13], "gasor": [31.28], "kerosine": [0.0], "lat": 11.86648611, "nombre": "Puma Inmaculada", "id": "CZO0101"}, {"diesela": [0.0], "lon": -86.23889722, "dieselr": [27.24], "marca2": "UNO", "marca": "UNO", "direccion": "Contiguo a la Colonia Inmaculada,  Carretera Panamericana.", "gasos": [0.0], "gasor": [31.29], "kerosine": [0.0], "lat": 11.86073056, "nombre": "Uno Diriamba 1", "id": "CZO0102"}, {"diesela": [0.0], "lon": -86.23684444, "dieselr": [27.24], "marca2": "UNO", "marca": "UNO", "direccion": "De Enel 2C. al Sur.", "gasos": [34.13], "gasor": [31.28], "kerosine": [0.0], "lat": 11.85883056, "nombre": "Uno Diriamba 2", "id": "CZO0103"}, {"diesela": [0.0], "lon": -86.20283889, "dieselr": [27.24], "marca2": "Puma", "marca": "PUM", "direccion": "Barrio San Jos\u00e9 Frente a Bomberos", "gasos": [34.13], "gasor": [31.28], "kerosine": [0.0], "lat": 11.85144167, "nombre": "Puma Jinotepe", "id": "CZO0201"}, {"diesela": [27.5], "lon": -86.19529444, "dieselr": [27.24], "marca2": "UNO", "marca": "UNO", "direccion": "Frente Iglesia El Calvario,  Barrio San Felipe", "gasos": [34.13], "gasor": [31.28], "kerosine": [0.0], "lat": 11.84938333, "nombre": "Uno Santiago", "id": "CZO0202"}, {"diesela": [0.0], "lon": -86.19506667, "dieselr": [27.24], "marca2": "UNO", "marca": "UNO", "direccion": "Frente Iglesia El Calvario,  Barrio San Felipe", "gasos": [34.13], "gasor": [31.28], "kerosine": [0.0], "lat": 11.84912222, "nombre": "Uno Jinotepe/San Jos\u00e9", "id": "CZO0203"}, {"diesela": [0.0], "lon": -86.18676667, "dieselr": [27.29], "marca2": "DNP", "marca": "DNP", "direccion": "Salida a Nandaime,  Carretera Panamericana", "gasos": [34.18], "gasor": [31.28], "kerosine": [0.0], "lat": 11.84036111, "nombre": "Petronic Jinotepe", "id": "CZO0204"}, {"diesela": [0.0], "lon": -86.20568056, "dieselr": [27.24], "marca2": "UNO", "marca": "UNO", "direccion": "Parque Central 1C. al Oeste. San Marcos", "gasos": [34.13], "gasor": [31.28], "kerosine": [0.0], "lat": 11.90912222, "nombre": "Uno San Marcos", "id": "CZO0301"}, {"diesela": [0.0], "lon": -86.3997, "dieselr": [28.8], "marca2": "DNP", "marca": "DNP", "direccion": "Km 186 Carretera Panamerica Norte.", "gasos": [36.65], "gasor": [0.0], "kerosine": [0.0], "lat": 13.37235556, "nombre": "Petronic Condega", "id": "EST0101"}, {"diesela": [0.0], "lon": -86.36921667, "dieselr": [29.1], "marca2": "Independiente", "marca": "IND", "direccion": "Km.144 Carretera a Estel\u00ed", "gasos": [36.5], "gasor": [0.0], "kerosine": [0.0], "lat": 13.2482, "nombre": "Independiente Saavedra", "id": "EST0102"}, {"diesela": [0.0], "lon": -86.35151667, "dieselr": [27.76], "marca2": "Puma", "marca": "PUM", "direccion": "Frente al Costado Sur de La Polic\u00eda de Tr\u00e1nsito", "gasos": [35.76], "gasor": [0.0], "kerosine": [0.0], "lat": 13.096825, "nombre": "Puma Internacional", "id": "EST0201"}, {"diesela": [27.76], "lon": -86.351975, "dieselr": [27.51], "marca2": "UNO", "marca": "UNO", "direccion": "Km 147.5 Carretera Panamerica Norte", "gasos": [35.76], "gasor": [0.0], "kerosine": [0.0], "lat": 13.092425, "nombre": "Uno Estel\u00ed", "id": "EST0202"}, {"diesela": [0.0], "lon": -86.35274722, "dieselr": [27.99], "marca2": "UNO", "marca": "UNO", "direccion": "Km 150 Carretera Panamericana Norte", "gasos": [35.83], "gasor": [35.35], "kerosine": [0.0], "lat": 13.10327778, "nombre": "Uno Estel\u00ed Norte", "id": "EST0203"}, {"diesela": [28.58], "lon": -86.35180556, "dieselr": [28.32], "marca2": "UNO", "marca": "UNO", "direccion": "Contiguo a Tropigas Estel\u00ed", "gasos": [35.48], "gasor": [35.72], "kerosine": [0.0], "lat": 13.08345833, "nombre": "Uno Esquipulas", "id": "EST0204"}, {"diesela": [0.0], "lon": -86.35070833, "dieselr": [27.82], "marca2": "DNP", "marca": "DNP", "direccion": "Km 146 Carretera Panamerica Norte", "gasos": [35.74], "gasor": [0.0], "kerosine": [0.0], "lat": 13.07032222, "nombre": "Petronic  Estel\u00ed I", "id": "EST0205"}, {"diesela": [0.0], "lon": -86.35669167, "dieselr": [28.34], "marca2": "DNP", "marca": "DNP", "direccion": "Del Almac\u00e9n Sony  1C al Este.", "gasos": [35.76], "gasor": [0.0], "kerosine": [0.0], "lat": 13.08740278, "nombre": "Petronic Estel\u00ed El Carmen", "id": "EST0207"}, {"diesela": [0.0], "lon": -86.34664444, "dieselr": [28.32], "marca2": "Independiente", "marca": "IND", "direccion": "Entrada  a Estel\u00ed km. 145", "gasos": [35.85], "gasor": [0.0], "kerosine": [0.0], "lat": 13.06326944, "nombre": "Independiente  Servicentro Mairena", "id": "EST0208"}, {"diesela": [0.0], "lon": -86.23317778, "dieselr": [0.0], "marca2": "DNP", "marca": "DNP", "direccion": "Km 122 Carretera Panamerica Norte.", "gasos": [0.0], "gasor": [0.0], "kerosine": [0.0], "lat": 12.96620833, "nombre": "Petronic La Trinidad", "id": "EST0301"}, {"diesela": [0.0], "lon": -86.05056667, "dieselr": [27.92], "marca2": "Independiente", "marca": "IND", "direccion": "Entrada a Diri\u00e1.", "gasos": [34.11], "gasor": [0.0], "kerosine": [0.0], "lat": 11.88019722, "nombre": "Independiente Shalom", "id": "GRA0101"}, {"diesela": [0.0], "lon": -86.04552222, "dieselr": [27.5], "marca2": "DNP", "marca": "DNP", "direccion": "Entrada a la Ciudad de Diriomo", "gasos": [34.2], "gasor": [0.0], "kerosine": [0.0], "lat": 11.87640556, "nombre": "Petronic Diriomo", "id": "GRA0201"}, {"diesela": [0.0], "lon": -85.96284722, "dieselr": [27.09], "marca2": "Puma", "marca": "PUM", "direccion": "Km 46 Carretera a Granada. Frente a Colegio Inmaculada", "gasos": [34.1], "gasor": [31.31], "kerosine": [0.0], "lat": 11.93660278, "nombre": "Puma Cocibolca", "id": "GRA0301"}, {"diesela": [28.45], "lon": -85.96224444, "dieselr": [27.95], "marca2": "UNO", "marca": "UNO", "direccion": "Km 46 Carretera a Granada. Frente a Colegio Inmaculada", "gasos": [34.11], "gasor": [31.31], "kerosine": [0.0], "lat": 11.93604722, "nombre": "Uno Guapinol", "id": "GRA0302"}, {"diesela": [0.0], "lon": -85.95535, "dieselr": [27.95], "marca2": "UNO", "marca": "UNO", "direccion": "Del Mercado Municipal 1C. al Sur.", "gasos": [34.11], "gasor": [31.31], "kerosine": [0.0], "lat": 11.92528056, "nombre": "Uno Palmira", "id": "GRA0303"}, {"diesela": [0.0], "lon": -85.96214167, "dieselr": [27.42], "marca2": "DNP", "marca": "DNP", "direccion": "Calle El Consulado, frente al Asilo de Ancianos.", "gasos": [34.17], "gasor": [31.46], "kerosine": [0.0], "lat": 11.93205556, "nombre": "Petronic Granada", "id": "GRA0304"}, {"diesela": [0.0], "lon": -85.92925278, "dieselr": [0.0], "marca2": "DNP", "marca": "DNP", "direccion": "Club Cocibolca, Puerto Asese", "gasos": [35.4], "gasor": [0.0], "kerosine": [0.0], "lat": 11.89956389, "nombre": "Petronic Puerto Asese", "id": "GRA0305"}, {"diesela": [27.49], "lon": -86.04686111, "dieselr": [27.24], "marca2": "UNO", "marca": "UNO", "direccion": "Km 67 Carretera Panamerica Sur.", "gasos": [34.13], "gasor": [31.28], "kerosine": [0.0], "lat": 11.75895, "nombre": "Uno Nandaime", "id": "GRA0401"}, {"diesela": [0.0], "lon": -86.04661389, "dieselr": [27.8], "marca2": "UNO", "marca": "UNO", "direccion": "Km 66 Carretera Panamericana,  Nandaime", "gasos": [34.11], "gasor": [31.29], "kerosine": [26.0], "lat": 11.75813889, "nombre": "Uno Santa Teresa", "id": "GRA0402"}, {"diesela": [0.0], "lon": -86.00201667, "dieselr": [0.0], "marca2": "Puma", "marca": "PUM", "direccion": "Parque La Uni\u00f3n 150 metros al Oeste.", "gasos": [0.0], "gasor": [0.0], "kerosine": [0.0], "lat": 13.09285556, "nombre": "Puma Las Brumas", "id": "JIN0101"}, {"diesela": [0.0], "lon": -85.99996111, "dieselr": [0.0], "marca2": "UNO", "marca": "UNO", "direccion": "Frente al Parque Otto Casco", "gasos": [0.0], "gasor": [0.0], "kerosine": [0.0], "lat": 13.08892778, "nombre": "Uno Jinotega", "id": "JIN0102"}, {"diesela": [0.0], "lon": -85.99814167, "dieselr": [0.0], "marca2": "DNP", "marca": "DNP", "direccion": "Barrio Mauricio Altamirano", "gasos": [0.0], "gasor": [0.0], "kerosine": [0.0], "lat": 13.09317778, "nombre": "Petronic Jinotega El Carmen", "id": "JIN0103"}, {"diesela": [0.0], "lon": -86.00088333, "dieselr": [0.0], "marca2": "DNP", "marca": "DNP", "direccion": "Carretera a San Rafael del Norte.", "gasos": [0.0], "gasor": [0.0], "kerosine": [0.0], "lat": 13.10164722, "nombre": "Petronic Jinotega \"San Crist\u00f3bal\"", "id": "JIN0104"}, {"diesela": [0.0], "lon": -85.99955833, "dieselr": [0.0], "marca2": "Independiente", "marca": "IND", "direccion": "Jinotega", "gasos": [0.0], "gasor": [0.0], "kerosine": [0.0], "lat": 13.09998889, "nombre": "SERVICENTRO/Apanas", "id": "JIN0105"}, {"diesela": [0.0], "lon": -85.99356111, "dieselr": [0.0], "marca2": "Puma", "marca": "PUM", "direccion": "Frente estadio", "gasos": [0.0], "gasor": [0.0], "kerosine": [0.0], "lat": 13.08605, "nombre": "Puma Chag\u00fcite", "id": "JIN0106"}, {"diesela": [0.0], "lon": -86.005875, "dieselr": [0.0], "marca2": "DNP", "marca": "DNP", "direccion": "Jinotega", "gasos": [0.0], "gasor": [0.0], "kerosine": [0.0], "lat": 13.11028889, "nombre": "Petronic El Chipote", "id": "JIN0107"}, {"diesela": [0.0], "lon": -85.53993611, "dieselr": [0.0], "marca2": "DNP", "marca": "DNP", "direccion": "Frente al Parque Central El Cua,  Bocay", "gasos": [0.0], "gasor": [0.0], "kerosine": [0.0], "lat": 13.54187222, "nombre": "Petronic San Jos\u00e9 de Bocay", "id": "JIN0201"}, {"diesela": [0.0], "lon": -86.11140278, "dieselr": [0.0], "marca2": "DNP", "marca": "DNP", "direccion": "Salida Norte de Jinotega", "gasos": [0.0], "gasor": [0.0], "kerosine": [0.0], "lat": 13.21193056, "nombre": "Petronic San Rafael del Norte", "id": "JIN0301"}, {"diesela": [0.0], "lon": -86.53945556, "dieselr": [0.0], "marca2": "DNP", "marca": "DNP", "direccion": "Parque Azul y Blanco 1C al Norte.", "gasos": [0.0], "gasor": [0.0], "kerosine": [0.0], "lat": 12.88250278, "nombre": "Petronic El Sauce", "id": "LEO0101"}, {"diesela": [0.0], "lon": -86.67841389, "dieselr": [0.0], "marca2": "Independiente", "marca": "IND", "direccion": "Antiguo Puesto Polic\u00eda 2C al Oeste,  Km 56 Carretera a Le\u00f3n", "gasos": [0.0], "gasor": [0.0], "kerosine": [0.0], "lat": 12.33505278, "nombre": "Independiente La Paz Centro", "id": "LEO0202"}, {"diesela": [0.0], "lon": -86.87566111, "dieselr": [28.02], "marca2": "Puma", "marca": "PUM", "direccion": "Km 90 Carretera a Le\u00f3n.", "gasos": [34.78], "gasor": [31.98], "kerosine": [0.0], "lat": 12.42376389, "nombre": "Puma El Para\u00edso", "id": "LEO0301"}, {"diesela": [0.0], "lon": -86.86764167, "dieselr": [27.7], "marca2": "Puma", "marca": "PUM", "direccion": "Km 96 Carretera a Chinandega.", "gasos": [34.99], "gasor": [32.06], "kerosine": [0.0], "lat": 12.45841944, "nombre": "Puma San Vicente", "id": "LEO0302"}, {"diesela": [0.0], "lon": -86.867975, "dieselr": [27.7], "marca2": "UNO", "marca": "UNO", "direccion": "Terminal de Buses Le\u00f3n", "gasos": [34.99], "gasor": [0.0], "kerosine": [0.0], "lat": 12.44352222, "nombre": "Uno Terminal de Buses", "id": "LEO0303"}, {"diesela": [27.95], "lon": -86.86905556, "dieselr": [27.7], "marca2": "UNO", "marca": "UNO", "direccion": "Salida a Chinandega,  Le\u00f3n", "gasos": [34.99], "gasor": [32.06], "kerosine": [0.0], "lat": 12.45635833, "nombre": "Uno San Vicente", "id": "LEO0304"}, {"diesela": [27.95], "lon": -86.87082222, "dieselr": [27.7], "marca2": "UNO", "marca": "UNO", "direccion": "Km 89.5 Carretera a Le\u00f3n.", "gasos": [34.99], "gasor": [32.06], "kerosine": [0.0], "lat": 12.42036389, "nombre": "Uno San Benito 1", "id": "LEO0305"}, {"diesela": [0.0], "lon": -86.89054444, "dieselr": [27.7], "marca2": "UNO", "marca": "UNO", "direccion": "Salida a Poneloya", "gasos": [34.99], "gasor": [32.06], "kerosine": [0.0], "lat": 12.43509722, "nombre": "Uno Guido", "id": "LEO0306"}, {"diesela": [0.0], "lon": -86.86809444, "dieselr": [27.7], "marca2": "UNO", "marca": "UNO", "direccion": "Contiguo a Edificio Central de La Polic\u00eda en Le\u00f3n", "gasos": [34.99], "gasor": [32.06], "kerosine": [0.0], "lat": 12.45729444, "nombre": "Uno Metropolitana", "id": "LEO0307"}, {"diesela": [0.0], "lon": -86.86613611, "dieselr": [27.7], "marca2": "DNP", "marca": "DNP", "direccion": "De la Polic\u00eda 3C al Este.", "gasos": [35.1], "gasor": [0.0], "kerosine": [0.0], "lat": 12.45581111, "nombre": "Petronic Mini Le\u00f3n By Pass", "id": "LEO0308"}, {"diesela": [0.0], "lon": -86.87461667, "dieselr": [27.74], "marca2": "DNP", "marca": "DNP", "direccion": "Del Mercado 2C al Norte.", "gasos": [35.02], "gasor": [0.0], "kerosine": [0.0], "lat": 12.43853333, "nombre": "Petronic Le\u00f3n \"San Juan\"", "id": "LEO0309"}, {"diesela": [0.0], "lon": -86.55515, "dieselr": [27.68], "marca2": "UNO", "marca": "UNO", "direccion": "Km 41 Carretera a Le\u00f3n", "gasos": [33.97], "gasor": [31.17], "kerosine": [0.0], "lat": 12.26996944, "nombre": "Uno Nagarote/Santiago", "id": "LEO0401"}, {"diesela": [0.0], "lon": -86.69075556, "dieselr": [0.0], "marca2": "DNP", "marca": "DNP", "direccion": "Empalme a Carretera a Puerto Sandino", "gasos": [0.0], "gasor": [0.0], "kerosine": [0.0], "lat": 12.21863056, "nombre": "Petronic Tizcuco", "id": "LEO0402"}, {"diesela": [0.0], "lon": -86.56445, "dieselr": [27.69], "marca2": "Puma", "marca": "PUM", "direccion": "Del Parque Central,  1 c/Sur,  2 c/Norte\n\u00a0Nagarote\n\u00a0Nicaragua", "gasos": [0.0], "gasor": [30.57], "kerosine": [0.0], "lat": 12.26592222, "nombre": "Puma Nagarote", "id": "LEO0403"}, {"diesela": [0.0], "lon": -86.40901667, "dieselr": [28.8], "marca2": "DNP", "marca": "DNP", "direccion": "Costado sur este de la iglesia cat\u00f3lica,  Palacaguina", "gasos": [36.4], "gasor": [0.0], "kerosine": [0.0], "lat": 13.45428333, "nombre": "Petronic Palacaguina", "id": "MAD0101"}, {"diesela": [0.0], "lon": -86.17425278, "dieselr": [0.0], "marca2": "DNP", "marca": "DNP", "direccion": "Entrada San Juan de R\u00edo Coco", "gasos": [0.0], "gasor": [0.0], "kerosine": [0.0], "lat": 13.54254444, "nombre": "Petronic San Juan de R\u00edo Coco", "id": "MAD0201"}, {"diesela": [0.0], "lon": -86.582125, "dieselr": [29.85], "marca2": "DNP", "marca": "DNP", "direccion": "Frente a la COTRAN,  Somoto", "gasos": [36.1], "gasor": [0.0], "kerosine": [0.0], "lat": 13.48754444, "nombre": "Petronic Somoto", "id": "MAD0301"}, {"diesela": [0.0], "lon": -86.57959167, "dieselr": [29.85], "marca2": "Puma", "marca": "PUM", "direccion": "Km 217 Carretera Panamericana.", "gasos": [35.83], "gasor": [0.0], "kerosine": [0.0], "lat": 13.4896, "nombre": "Puma Somoto", "id": "MAD0302"}, {"diesela": [0.0], "lon": -86.18999722, "dieselr": [27.29], "marca2": "DNP", "marca": "DNP", "direccion": "Iglesia Cat\u00f3lica 2C. Al Sur. La Concepci\u00f3n.", "gasos": [34.18], "gasor": [0.0], "kerosine": [0.0], "lat": 11.93865, "nombre": "Petronic La Concha", "id": "MAS0101"}, {"diesela": [0.0], "lon": -86.09567222, "dieselr": [27.39], "marca2": "Puma", "marca": "PUM", "direccion": "Km 29 Carretera a Masaya", "gasos": [34.13], "gasor": [31.31], "kerosine": [0.0], "lat": 11.98718889, "nombre": "Puma Masaya", "id": "MAS0201"}, {"diesela": [27.64], "lon": -86.09691944, "dieselr": [27.39], "marca2": "UNO", "marca": "UNO", "direccion": "Entrada principal a la Ciudad de Masaya.", "gasos": [34.13], "gasor": [31.31], "kerosine": [0.0], "lat": 11.98790278, "nombre": "Uno Las Flores", "id": "MAS0202"}, {"diesela": [27.64], "lon": -86.09476667, "dieselr": [27.39], "marca2": "UNO", "marca": "UNO", "direccion": "De la Iglesia San Jer\u00f3nimo 2C. al Oeste.", "gasos": [34.13], "gasor": [31.31], "kerosine": [0.0], "lat": 11.97857778, "nombre": "Uno San Jer\u00f3nimo", "id": "MAS0203"}, {"diesela": [27.64], "lon": -86.09653333, "dieselr": [27.39], "marca2": "UNO", "marca": "UNO", "direccion": "Km 28 Carretera a Masaya.", "gasos": [34.13], "gasor": [31.31], "kerosine": [0.0], "lat": 11.98248611, "nombre": "Uno Coyotepe", "id": "MAS0204"}, {"diesela": [0.0], "lon": -86.09720833, "dieselr": [27.39], "marca2": "UNO", "marca": "UNO", "direccion": "Km 29 Carretera a Masaya", "gasos": [34.13], "gasor": [31.31], "kerosine": [0.0], "lat": 11.98896389, "nombre": "Uno  Masaya", "id": "MAS0205"}, {"diesela": [0.0], "lon": -86.09655556, "dieselr": [27.39], "marca2": "DNP", "marca": "DNP", "direccion": "Entrada principal a la Ciudad de Masaya 2C. Al Sur.", "gasos": [34.13], "gasor": [0.0], "kerosine": [0.0], "lat": 11.98590556, "nombre": "Petronic Masaya", "id": "MAS0206"}, {"diesela": [0.0], "lon": -86.11513889, "dieselr": [27.39], "marca2": "Puma", "marca": "PUM", "direccion": "Km 26 Carretera a Masaya", "gasos": [34.13], "gasor": [31.31], "kerosine": [0.0], "lat": 11.99941111, "nombre": "Puma Nindir\u00ed", "id": "MAS0301"}, {"diesela": [27.56], "lon": -86.14637222, "dieselr": [27.31], "marca2": "UNO", "marca": "UNO", "direccion": "Entrada a Masatepe", "gasos": [34.19], "gasor": [31.3], "kerosine": [0.0], "lat": 11.9087, "nombre": "Uno Masatepe", "id": "MAS0401"}, {"diesela": [0.0], "lon": -86.14023333, "dieselr": [27.29], "marca2": "DNP", "marca": "DNP", "direccion": "Entrada a la Ciudad de Masatepe", "gasos": [34.18], "gasor": [0.0], "kerosine": [0.0], "lat": 11.90956111, "nombre": "Petronic Masatepe", "id": "MAS0402"}, {"diesela": [0.0], "lon": -86.12618333, "dieselr": [0.0], "marca2": "UNO", "marca": "UNO", "direccion": "Bo Nuevo Fte a T Gonz\u00e1lez -\u00a0Ciudad Dar\u00edo\u00a0MT", "gasos": [0.0], "gasor": [0.0], "kerosine": [0.0], "lat": 12.73445, "nombre": "Uno Dar\u00edo", "id": "MAT0101"}, {"diesela": [0.0], "lon": -85.90415, "dieselr": [29.98], "marca2": "Puma", "marca": "PUM", "direccion": "Carretera al Tuma Barrio Las Mar\u00edas.", "gasos": [35.9], "gasor": [33.76], "kerosine": [0.0], "lat": 12.94107222, "nombre": "Puma Las Mar\u00edas", "id": "MAT0201"}, {"diesela": [0.0], "lon": -85.92045, "dieselr": [30.09], "marca2": "Puma", "marca": "PUM", "direccion": "Salida a Jinotega", "gasos": [35.95], "gasor": [33.82], "kerosine": [0.0], "lat": 12.93618611, "nombre": "Puma San Martin", "id": "MAT0202"}, {"diesela": [30.34], "lon": -85.92986944, "dieselr": [30.09], "marca2": "UNO", "marca": "UNO", "direccion": "Salida a Managua.", "gasos": [35.95], "gasor": [33.82], "kerosine": [0.0], "lat": 12.92056111, "nombre": "Uno La Virgen", "id": "MAT0204"}, {"diesela": [0.0], "lon": -85.90663889, "dieselr": [29.98], "marca2": "UNO", "marca": "UNO", "direccion": "Km 132 Carretera a San Ram\u00f3n. Barrio Las Mar\u00edas.", "gasos": [35.9], "gasor": [33.76], "kerosine": [0.0], "lat": 12.93861389, "nombre": "Uno Estrella del Norte", "id": "MAT0205"}, {"diesela": [0.0], "lon": -85.92146111, "dieselr": [30.17], "marca2": "UNO", "marca": "UNO", "direccion": "Parque Dar\u00edo 1C al Oeste y 1C al Sur.", "gasos": [36.04], "gasor": [33.83], "kerosine": [0.0], "lat": 12.920925, "nombre": "Uno Matagalpa", "id": "MAT0206"}, {"diesela": [0.0], "lon": -85.95075556, "dieselr": [29.07], "marca2": "DNP", "marca": "DNP", "direccion": "Km 126 Carretera a Matagalpa", "gasos": [35.76], "gasor": [33.31], "kerosine": [0.0], "lat": 12.91003611, "nombre": "Petronic Matagalpa", "id": "MAT0207"}, {"diesela": [0.0], "lon": -85.4492667, "dieselr": [0.0], "marca2": "Independiente", "marca": "IND", "direccion": "Antiguo Prolacas 150 metros al Este.", "gasos": [0.0], "gasor": [0.0], "kerosine": [0.0], "lat": 12.8317556, "nombre": "Independiente Surtidora de Diesel Matigu\u00e1s", "id": "MAT0301"}, {"diesela": [0.0], "lon": -85.4528472, "dieselr": [0.0], "marca2": "Independiente", "marca": "IND", "direccion": "Contiguo al Bar S1000 (Esmilce)", "gasos": [0.0], "gasor": [0.0], "kerosine": [0.0], "lat": 12.8332639, "nombre": "Independiente Matigu\u00e1s", "id": "MAT0302"}, {"diesela": [0.0], "lon": -85.4363722, "dieselr": [0.0], "marca2": "Independiente", "marca": "IND", "direccion": "Empalme el Jobo Frente a Planta El\u00e9ctrica", "gasos": [0.0], "gasor": [0.0], "kerosine": [0.0], "lat": 12.8266444, "nombre": "Independiente Girasol Matigu\u00e1s", "id": "MAT0303"}, {"diesela": [0.0], "lon": -85.22631944, "dieselr": [0.0], "marca2": "UNO", "marca": "UNO", "direccion": "Frente a Bancentro", "gasos": [0.0], "gasor": [0.0], "kerosine": [0.0], "lat": 12.92790278, "nombre": "Uno Rio Blanco", "id": "MAT0401"}, {"diesela": [0.0], "lon": -85.22348333, "dieselr": [0.0], "marca2": "Independiente", "marca": "IND", "direccion": "Frente Mercado Municipal.", "gasos": [0.0], "gasor": [0.0], "kerosine": [0.0], "lat": 12.92522778, "nombre": "Independiente Rio Blanco", "id": "MAT0402"}, {"diesela": [0.0], "lon": -85.23273333, "dieselr": [0.0], "marca2": "Independiente", "marca": "IND", "direccion": "Contiguo al Deposito de la Pepsi Carretera a Matigu\u00e1s.", "gasos": [0.0], "gasor": [0.0], "kerosine": [0.0], "lat": 12.92870556, "nombre": "Independiente Las Colinas", "id": "MAT0403"}, {"diesela": [0.0], "lon": -86.19318889, "dieselr": [0.0], "marca2": "UNO", "marca": "UNO", "direccion": "Km 118 Carretera Panamerica Norte", "gasos": [0.0], "gasor": [0.0], "kerosine": [0.0], "lat": 12.92452778, "nombre": "Uno San Isidro", "id": "MAT0501"}, {"diesela": [0.0], "lon": -85.84055833, "dieselr": [0.0], "marca2": "DNP", "marca": "DNP", "direccion": "Contiguo a La Polic\u00eda de San Ram\u00f3n.", "gasos": [0.0], "gasor": [0.0], "kerosine": [0.0], "lat": 12.92437778, "nombre": "Petronic San Ram\u00f3n (Matagalpa)", "id": "MAT0601"}, {"diesela": [0.0], "lon": -86.102375, "dieselr": [0.0], "marca2": "DNP", "marca": "DNP", "direccion": "Entrada a la ciudad de S\u00e9baco", "gasos": [0.0], "gasor": [0.0], "kerosine": [0.0], "lat": 12.84377778, "nombre": "Petronic S\u00e9baco", "id": "MAT0701"}, {"diesela": [0.0], "lon": -86.09846667, "dieselr": [0.0], "marca2": "UNO", "marca": "UNO", "direccion": "Empalme de S\u00e9baco.", "gasos": [0.0], "gasor": [0.0], "kerosine": [0.0], "lat": 12.853125, "nombre": "Uno S\u00e9baco", "id": "MAT0702"}, {"diesela": [0.0], "lon": -85.7941111, "dieselr": [0.0], "marca2": "DNP", "marca": "DNP", "direccion": "Frente a Cementerio Municipal", "gasos": [0.0], "gasor": [0.0], "kerosine": [0.0], "lat": 12.6561694, "nombre": "Petronic Esquipulas (Matagalpa)", "id": "MAT0801"}, {"diesela": [0.0], "lon": -85.6325222, "dieselr": [0.0], "marca2": "Independiente", "marca": "IND", "direccion": "Terminal de Buses 5 cuadras al Norte.", "gasos": [0.0], "gasor": [0.0], "kerosine": [0.0], "lat": 12.7645083, "nombre": "Independiente Muy Muy", "id": "MAT0901"}, {"diesela": [0.0], "lon": -86.31755556, "dieselr": [27.12], "marca2": "Puma", "marca": "PUM", "direccion": "Km 8.5 Carretera Sur.  Altos de Nejapa", "gasos": [33.98], "gasor": [31.16], "kerosine": [0.0], "lat": 12.10682778, "nombre": "Puma Nejapa", "id": "MGA0101"}, {"diesela": [0.0], "lon": -86.31374167, "dieselr": [27.12], "marca2": "Puma", "marca": "PUM", "direccion": "Km 7 Carretera Sur.", "gasos": [33.98], "gasor": [31.16], "kerosine": [0.0], "lat": 12.12243611, "nombre": "Puma 7 Sur", "id": "MGA0102"}, {"diesela": [0.0], "lon": -86.300975, "dieselr": [26.6], "marca2": "UNO", "marca": "UNO", "direccion": "Mercado Israel Lewites Pisa Batahola.", "gasos": [0.0], "gasor": [0.0], "kerosine": [0.0], "lat": 12.12871111, "nombre": "Uno Mercado Israel Lewites", "id": "MGA0103"}, {"diesela": [27.37], "lon": -86.31508611, "dieselr": [27.12], "marca2": "UNO", "marca": "UNO", "direccion": "Km 7.5 Carretera Sur.", "gasos": [33.98], "gasor": [31.16], "kerosine": [0.0], "lat": 12.11895278, "nombre": "Uno Nejapa", "id": "MGA0104"}, {"diesela": [27.37], "lon": -86.31306111, "dieselr": [27.12], "marca2": "UNO", "marca": "UNO", "direccion": "Km 7 Carretera Sur.", "gasos": [33.98], "gasor": [31.16], "kerosine": [0.0], "lat": 12.12253333, "nombre": "Uno 7 Sur", "id": "MGA0105"}, {"diesela": [0.0], "lon": -86.32423333, "dieselr": [0.0], "marca2": "UNO", "marca": "UNO", "direccion": "Km 10.5 Carretera Sur. Altos de Ticomo", "gasos": [0.0], "gasor": [0.0], "kerosine": [0.0], "lat": 12.09141667, "nombre": "Uno Ticomo", "id": "MGA0106"}, {"diesela": [0.0], "lon": -86.475975, "dieselr": [0.0], "marca2": "DNP", "marca": "DNP", "direccion": "Empalme Carretera Vieja a Le\u00f3n.", "gasos": [0.0], "gasor": [0.0], "kerosine": [0.0], "lat": 12.06584167, "nombre": "Petronic Los Cedros", "id": "MGA0107"}, {"diesela": [27.37], "lon": -86.32389167, "dieselr": [27.12], "marca2": "UNO", "marca": "UNO", "direccion": "Km 10 Carretera Sur. Altos de Ticomo", "gasos": [33.98], "gasor": [31.16], "kerosine": [0.0], "lat": 12.09545, "nombre": "Uno El Triangulo", "id": "MGA0108"}, {"diesela": [0.0], "lon": -86.23835, "dieselr": [27.12], "marca2": "Puma", "marca": "PUM", "direccion": "Frente a Cementerio Oriental.", "gasos": [33.98], "gasor": [31.16], "kerosine": [0.0], "lat": 12.14100833, "nombre": "Puma Salvadorita", "id": "MGA0201"}, {"diesela": [0.0], "lon": -86.2319, "dieselr": [27.12], "marca2": "Puma", "marca": "PUM", "direccion": "Sem\u00e1foros de Ruben\u00eda.", "gasos": [33.98], "gasor": [31.16], "kerosine": [0.0], "lat": 12.12994167, "nombre": "Puma Ruben\u00eda", "id": "MGA0202"}, {"diesela": [0.0], "lon": -86.22412778, "dieselr": [27.12], "marca2": "Puma", "marca": "PUM", "direccion": "Rotonda Larreynaga donde esta la Virgen.", "gasos": [33.98], "gasor": [31.16], "kerosine": [0.0], "lat": 12.14417778, "nombre": "Puma Larreynaga", "id": "MGA0203"}, {"diesela": [27.37], "lon": -86.23432778, "dieselr": [27.12], "marca2": "UNO", "marca": "UNO", "direccion": "Rotonda Bello Horizonte.", "gasos": [33.98], "gasor": [31.16], "kerosine": [0.0], "lat": 12.14616667, "nombre": "Uno Bello Horizonte", "id": "MGA0204"}, {"diesela": [0.0], "lon": -86.22028889, "dieselr": [27.12], "marca2": "UNO", "marca": "UNO", "direccion": "Entrada a Colonia Primero de Mayo 2C. al Este.", "gasos": [33.98], "gasor": [31.16], "kerosine": [0.0], "lat": 12.12843611, "nombre": "Uno Las Am\u00e9ricas", "id": "MGA0205"}, {"diesela": [0.0], "lon": -86.20301389, "dieselr": [27.15], "marca2": "DNP", "marca": "DNP", "direccion": "Contiguo al Plantel Petrogas Pista al Mayoreo", "gasos": [34.0], "gasor": [31.13], "kerosine": [0.0], "lat": 12.12834167, "nombre": "Petronic \"Coop. 2 de Agosto\"", "id": "MGA0206"}, {"diesela": [0.0], "lon": -86.24167778, "dieselr": [27.15], "marca2": "DNP", "marca": "DNP", "direccion": "Intersecci\u00f3n Sem\u00e1foros de la Larreynaga. Barrio Costa Rica", "gasos": [34.0], "gasor": [31.13], "kerosine": [0.0], "lat": 12.14567222, "nombre": "Petronic Larreynaga", "id": "MGA0207"}, {"diesela": [0.0], "lon": -86.30424167, "dieselr": [27.12], "marca2": "Puma", "marca": "PUM", "direccion": "Sem\u00e1foros de Linda Vista", "gasos": [33.98], "gasor": [31.16], "kerosine": [0.0], "lat": 12.151975, "nombre": "Puma Linda Vista", "id": "MGA0301"}, {"diesela": [27.37], "lon": -86.30489722, "dieselr": [27.12], "marca2": "UNO", "marca": "UNO", "direccion": "Sem\u00e1foros de Linda Vista Carretera a la Refiner\u00eda.", "gasos": [33.98], "gasor": [31.16], "kerosine": [0.0], "lat": 12.15299167, "nombre": "Uno Las Brisas", "id": "MGA0302"}, {"diesela": [0.0], "lon": -86.30430278, "dieselr": [27.12], "marca2": "UNO", "marca": "UNO", "direccion": "Sem\u00e1foros de Linda Vista 200 metros al Sur.", "gasos": [33.98], "gasor": [31.16], "kerosine": [0.0], "lat": 12.15074444, "nombre": "Uno El Cortijo", "id": "MGA0303"}, {"diesela": [0.0], "lon": -86.29001389, "dieselr": [27.15], "marca2": "DNP", "marca": "DNP", "direccion": "Frente a Reencauchadora Santa Ana.", "gasos": [34.0], "gasor": [31.13], "kerosine": [0.0], "lat": 12.15775278, "nombre": "Petronic Santa Ana", "id": "MGA0304"}, {"diesela": [0.0], "lon": -86.282725, "dieselr": [27.12], "marca2": "Puma", "marca": "PUM", "direccion": "Barrio El Triunfo.", "gasos": [33.98], "gasor": [0.0], "kerosine": [0.0], "lat": 12.15559167, "nombre": "Puma San Sebasti\u00e1n", "id": "MGA0401"},